<?xml version='1.0' encoding='UTF-8'?>
<kml xmlns='http://www.opengis.net/kml/2.2' xmlns:gx='http://www.google.com/kml/ext/2.2'>
<Document>
<name>kml</name>
<description>tomasz przechlewski, http://pinkaccordions.homelinux.org. Some rights reserved (CC BY 2.0)</description>
<Style id='PinX'><IconStyle><Icon><href>http://maps.google.com/mapfiles/kml/pal4/icon60.png</href></Icon></IconStyle></Style>
<Style id='XLine'><LineStyle><color>ffb18ff4</color><width>4</width></LineStyle></Style>
<Placemark><styleUrl>#PinX</styleUrl><name>ŻUK Stanisław Adam BEZP</name><description>Zawidów PSL Legnica</description><Point><coordinates>15.045250,51.020350</coordinates></Point></Placemark>
<Placemark><styleUrl>#PinX</styleUrl><name>SAMBORSKI Tadeusz PSL</name><description>Prochowice PSL Legnica</description><Point><coordinates>16.389995,51.267367</coordinates></Point></Placemark>
<Placemark><styleUrl>#PinX</styleUrl><name>SZCZĘSNA Mariola PSL</name><description>Lwówek Śląski PSL Legnica</description><Point><coordinates>15.599704,51.122500</coordinates></Point></Placemark>
<Placemark><styleUrl>#PinX</styleUrl><name>ROJEK Andrzej BEZP</name><description>Zgorzelec PSL Legnica</description><Point><coordinates>15.015568,51.155569</coordinates></Point></Placemark>
<Placemark><styleUrl>#PinX</styleUrl><name>LASKOWSKI Stanisław PSL</name><description>Jawor PSL Legnica</description><Point><coordinates>16.187016,51.071627</coordinates></Point></Placemark>
<Placemark><styleUrl>#PinX</styleUrl><name>JURKOWSKI Artur Andrzej PSL</name><description>Głogów PSL Legnica</description><Point><coordinates>16.130674,51.666366</coordinates></Point></Placemark>
<Placemark><styleUrl>#PinX</styleUrl><name>RAK Zofia PSL</name><description>Gryfów Śląski PSL Legnica</description><Point><coordinates>15.439132,51.043236</coordinates></Point></Placemark>
<Placemark><styleUrl>#PinX</styleUrl><name>PIOTROWSKI Wiktor Marian BEZP</name><description>Jawor PSL Legnica</description><Point><coordinates>16.179564,51.065969</coordinates></Point></Placemark>
<Placemark><styleUrl>#PinX</styleUrl><name>BRZOZOWSKA Bożena Maria BEZP</name><description>Jeżów Sudecki PSL Legnica</description><Point><coordinates>15.734962,50.960672</coordinates></Point></Placemark>
<Placemark><styleUrl>#PinX</styleUrl><name>BURDYNA Olga BEZP</name><description>Bolesławiec PSL Legnica</description><Point><coordinates>15.552901,51.318493</coordinates></Point></Placemark>
<Placemark><styleUrl>#PinX</styleUrl><name>WRONA Maria PSL</name><description>Prochowice PSL Legnica</description><Point><coordinates>16.389007,51.272867</coordinates></Point></Placemark>
<Placemark><styleUrl>#PinX</styleUrl><name>STANKIEWICZ Cecylia Ewa BEZP</name><description>Lubin PSL Legnica</description><Point><coordinates>16.185204,51.372074</coordinates></Point></Placemark>
<Placemark><styleUrl>#PinX</styleUrl><name>SADOWSKI Roman Edward PSL</name><description>Bolków PSL Legnica</description><Point><coordinates>16.067979,50.921973</coordinates></Point></Placemark>
<Placemark><styleUrl>#PinX</styleUrl><name>GRZYB Stanisław PSL</name><description>Pielgrzymka PSL Legnica</description><Point><coordinates>15.791496,51.106158</coordinates></Point></Placemark>
<Placemark><styleUrl>#PinX</styleUrl><name>MATYS Waldemar Andrzej StronnictwoDemokratyczne</name><description>Lubawka PSL Legnica</description><Point><coordinates>15.970432,50.677906</coordinates></Point></Placemark>
<Placemark><styleUrl>#PinX</styleUrl><name>SALATA Romuald Piotr BEZP</name><description>Bogatynia PSL Legnica</description><Point><coordinates>14.916698,50.946670</coordinates></Point></Placemark>
<Placemark><styleUrl>#PinX</styleUrl><name>KRASOWSKI Marcin Karol PSL</name><description>Lubin (a) PSL Legnica</description><Point><coordinates>16.192164,51.392453</coordinates></Point></Placemark>
<Placemark><styleUrl>#PinX</styleUrl><name>TUCHOWSKA Kazimiera Zofia PSL</name><description>Złotoryja PSL Legnica</description><Point><coordinates>15.949647,51.147743</coordinates></Point></Placemark>
<Placemark><styleUrl>#PinX</styleUrl><name>IMIELSKI Mariusz Janusz StronnictwoDemokratyczne</name><description>Bogatynia PSL Legnica</description><Point><coordinates>14.920192,50.954682</coordinates></Point></Placemark>
<Placemark><styleUrl>#PinX</styleUrl><name>ŁASICA Bartosz PSL</name><description>Lubań PSL Legnica</description><Point><coordinates>15.311121,51.133301</coordinates></Point></Placemark>
<Placemark><styleUrl>#PinX</styleUrl><name>OTROCIUK Barbara PSL</name><description>Bogatynia PSL Legnica</description><Point><coordinates>14.913520,50.950467</coordinates></Point></Placemark>
<Placemark><styleUrl>#PinX</styleUrl><name>BUKAT Eugenia BEZP</name><description>Jelenia Góra (a) PSL Legnica</description><Point><coordinates>15.716636,50.854912</coordinates></Point></Placemark>
<Placemark><styleUrl>#PinX</styleUrl><name>GNAT Stanisław BEZP</name><description>Polkowice PSL Legnica</description><Point><coordinates>16.084901,51.502091</coordinates></Point></Placemark>
<Placemark><styleUrl>#PinX</styleUrl><name>SUPIERZ Leszek Józef PSL</name><description>Kowary PSL Legnica</description><Point><coordinates>15.843413,50.781783</coordinates></Point></Placemark>
<Placemark><styleUrl>#PinX</styleUrl><name>GANCARZ Paweł Jarosław PSL</name><description>Stoszowice PSL Wałbrzych</description><Point><coordinates>16.676884,50.597071</coordinates></Point></Placemark>
<Placemark><styleUrl>#PinX</styleUrl><name>KOŁT Józef PiS</name><description>Bystrzyca Kłodzka PSL Wałbrzych</description><Point><coordinates>16.641128,50.289170</coordinates></Point></Placemark>
<Placemark><styleUrl>#PinX</styleUrl><name>KWIATKOWSKA Ewa Daniela BEZP</name><description>Wałbrzych PSL Wałbrzych</description><Point><coordinates>16.292656,50.784957</coordinates></Point></Placemark>
<Placemark><styleUrl>#PinX</styleUrl><name>KUCZEK Magdalena Dorota BEZP</name><description>Kłodzko PSL Wałbrzych</description><Point><coordinates>16.645490,50.430474</coordinates></Point></Placemark>
<Placemark><styleUrl>#PinX</styleUrl><name>RUDNICKI Jarosław Jerzy BEZP</name><description>Dzierżoniów PSL Wałbrzych</description><Point><coordinates>16.648257,50.726152</coordinates></Point></Placemark>
<Placemark><styleUrl>#PinX</styleUrl><name>BONIECKA Joanna Bogna PSL</name><description>Lądek-Zdrój PSL Wałbrzych</description><Point><coordinates>16.846284,50.346784</coordinates></Point></Placemark>
<Placemark><styleUrl>#PinX</styleUrl><name>SOKOŁOWSKA Maria PSL</name><description>Głuszyca PSL Wałbrzych</description><Point><coordinates>16.364660,50.675785</coordinates></Point></Placemark>
<Placemark><styleUrl>#PinX</styleUrl><name>DZIENDZIEL Wacław Alojzy PSL</name><description>Piława Górna PSL Wałbrzych</description><Point><coordinates>16.753233,50.682967</coordinates></Point></Placemark>
<Placemark><styleUrl>#PinX</styleUrl><name>MAZUR Paweł Mariusz PSL</name><description>Walim PSL Wałbrzych</description><Point><coordinates>16.409036,50.728174</coordinates></Point></Placemark>
<Placemark><styleUrl>#PinX</styleUrl><name>UBIK Jarosław Marian PSL</name><description>Nowa Ruda PSL Wałbrzych</description><Point><coordinates>16.516232,50.572619</coordinates></Point></Placemark>
<Placemark><styleUrl>#PinX</styleUrl><name>WIERZBICKA-BARA Danuta Maria BEZP</name><description>Ziębice PSL Wałbrzych</description><Point><coordinates>17.038780,50.581137</coordinates></Point></Placemark>
<Placemark><styleUrl>#PinX</styleUrl><name>KOWALSKA Sylwia Edyta BEZP</name><description>Jedlina-Zdrój PSL Wałbrzych</description><Point><coordinates>16.337057,50.723432</coordinates></Point></Placemark>
<Placemark><styleUrl>#PinX</styleUrl><name>KARCH Izabela Maria PSL</name><description>Kudowa-Zdrój PSL Wałbrzych</description><Point><coordinates>16.268351,50.444414</coordinates></Point></Placemark>
<Placemark><styleUrl>#PinX</styleUrl><name>SULIKOWSKA Natalia Weronika BEZP</name><description>Dzierżoniów PSL Wałbrzych</description><Point><coordinates>16.660536,50.726579</coordinates></Point></Placemark>
<Placemark><styleUrl>#PinX</styleUrl><name>KYCIA Radosław PSL</name><description>Wałbrzych PSL Wałbrzych</description><Point><coordinates>16.290287,50.781554</coordinates></Point></Placemark>
<Placemark><styleUrl>#PinX</styleUrl><name>LONGAWA Stanisław Tadeusz PSL</name><description>Kłodzko PSL Wałbrzych</description><Point><coordinates>16.667630,50.448609</coordinates></Point></Placemark>
<Placemark><styleUrl>#PinX</styleUrl><name>PROTASIEWICZ Jacek członek partii politycznej: Unia Europejskich Demokratów</name><description>Siechnice PSL Wrocław</description><Point><coordinates>17.153147,51.032958</coordinates></Point></Placemark>
<Placemark><styleUrl>#PinX</styleUrl><name>ZEGAN Maciej Adam BEZP</name><description>Wrocław (a) PSL Wrocław</description><Point><coordinates>16.976849,51.110761</coordinates></Point></Placemark>
<Placemark><styleUrl>#PinX</styleUrl><name>BRONOWICKA Joanna Barbara PSL</name><description>Wrocław (a) PSL Wrocław</description><Point><coordinates>16.996515,51.154312</coordinates></Point></Placemark>
<Placemark><styleUrl>#PinX</styleUrl><name>DUDA Grzegorz Tomasz PSL</name><description>Milicz PSL Wrocław</description><Point><coordinates>17.279190,51.504341</coordinates></Point></Placemark>
<Placemark><styleUrl>#PinX</styleUrl><name>SOCHA Jan PSL</name><description>Wrocław (a) PSL Wrocław</description><Point><coordinates>16.995149,51.132983</coordinates></Point></Placemark>
<Placemark><styleUrl>#PinX</styleUrl><name>MALEC Tomasz Stanisław BEZP</name><description>Wrocław (a) PSL Wrocław</description><Point><coordinates>17.006981,51.146006</coordinates></Point></Placemark>
<Placemark><styleUrl>#PinX</styleUrl><name>LECH Ryszard BEZP</name><description>Milicz PSL Wrocław</description><Point><coordinates>17.287155,51.504714</coordinates></Point></Placemark>
<Placemark><styleUrl>#PinX</styleUrl><name>SZYDEŁKO Witold BEZP</name><description>Twardogóra PSL Wrocław</description><Point><coordinates>17.452909,51.378146</coordinates></Point></Placemark>
<Placemark><styleUrl>#PinX</styleUrl><name>LITWIN Ewa Grażyna BEZP</name><description>Długołęka PSL Wrocław</description><Point><coordinates>17.207283,51.189160</coordinates></Point></Placemark>
<Placemark><styleUrl>#PinX</styleUrl><name>KURYŚ Hieronim Stanisław PSL</name><description>Kąty Wrocławskie PSL Wrocław</description><Point><coordinates>16.816490,51.032659</coordinates></Point></Placemark>
<Placemark><styleUrl>#PinX</styleUrl><name>WARCHOLIŃSKI Marek PSL</name><description>Strzelin PSL Wrocław</description><Point><coordinates>17.072544,50.773858</coordinates></Point></Placemark>
<Placemark><styleUrl>#PinX</styleUrl><name>KWIATKOWSKA-KORCZAK Janina członek partii politycznej: Unia Europejskich Demokratów</name><description>Wrocław (a) PSL Wrocław</description><Point><coordinates>17.004661,51.116186</coordinates></Point></Placemark>
<Placemark><styleUrl>#PinX</styleUrl><name>KUCHARSKA Aleksandra Anna członek partii politycznej: Unia Europejskich Demokratów</name><description>Wrocław (a) PSL Wrocław</description><Point><coordinates>16.964182,51.138250</coordinates></Point></Placemark>
<Placemark><styleUrl>#PinX</styleUrl><name>KUŹMICZ Łukasz Maciej PSL</name><description>Syców PSL Wrocław</description><Point><coordinates>17.653102,51.299760</coordinates></Point></Placemark>
<Placemark><styleUrl>#PinX</styleUrl><name>GROCHOLSKI Bartosz Krystian PSL</name><description>Wołów PSL Wrocław</description><Point><coordinates>16.607114,51.331378</coordinates></Point></Placemark>
<Placemark><styleUrl>#PinX</styleUrl><name>MACAŁA Łukasz Michał BEZP</name><description>Wrocław (a) PSL Wrocław</description><Point><coordinates>16.978190,51.148168</coordinates></Point></Placemark>
<Placemark><styleUrl>#PinX</styleUrl><name>SZULC Joanna Alicja PSL</name><description>Jelenia Góra (a) PSL Wrocław</description><Point><coordinates>15.724313,50.853985</coordinates></Point></Placemark>
<Placemark><styleUrl>#PinX</styleUrl><name>FURDYNA Jolanta Stanisława członek partii politycznej: Unia Europejskich Demokratów</name><description>Wrocław (a) PSL Wrocław</description><Point><coordinates>16.999130,51.107809</coordinates></Point></Placemark>
<Placemark><styleUrl>#PinX</styleUrl><name>ZALEWSKI Karol Henryk BEZP</name><description>Oława PSL Wrocław</description><Point><coordinates>17.293600,50.960864</coordinates></Point></Placemark>
<Placemark><styleUrl>#PinX</styleUrl><name>BUBNICKA Barbara Maria członek partii politycznej: Unia Europejskich Demokratów</name><description>Wrocław (a) PSL Wrocław</description><Point><coordinates>17.011341,51.126426</coordinates></Point></Placemark>
<Placemark><styleUrl>#PinX</styleUrl><name>KOWALSKI Arkadiusz Rafał BEZP</name><description>Świnoujście (b) PSL Wrocław</description><Point><coordinates>14.316441,53.847573</coordinates></Point></Placemark>
<Placemark><styleUrl>#PinX</styleUrl><name>MAJOCHA Elżbieta Marta członek partii politycznej: Unia Europejskich Demokratów</name><description>Wrocław (a) PSL Wrocław</description><Point><coordinates>16.968739,51.126058</coordinates></Point></Placemark>
<Placemark><styleUrl>#PinX</styleUrl><name>SOŁTYS Jacek Jan BEZP</name><description>Siechnice PSL Wrocław</description><Point><coordinates>17.139575,51.033902</coordinates></Point></Placemark>
<Placemark><styleUrl>#PinX</styleUrl><name>ADAMCZYK-POGORZELEC Bożena Maria BEZP</name><description>Lubań PSL Wrocław</description><Point><coordinates>15.275282,51.110196</coordinates></Point></Placemark>
<Placemark><styleUrl>#PinX</styleUrl><name>BARTOSZEWICZ Urszula Agnieszka PSL</name><description>Wrocław (a) PSL Wrocław</description><Point><coordinates>17.018971,51.129238</coordinates></Point></Placemark>
<Placemark><styleUrl>#PinX</styleUrl><name>PAWNUK Emilia Maria BEZP</name><description>Strzelin PSL Wrocław</description><Point><coordinates>17.075771,50.766952</coordinates></Point></Placemark>
<Placemark><styleUrl>#PinX</styleUrl><name>MRÓZ-MOŻDŻONEK Joanna Róża PSL</name><description>Wrocław (a) PSL Wrocław</description><Point><coordinates>17.004658,51.118404</coordinates></Point></Placemark>
<Placemark><styleUrl>#PinX</styleUrl><name>ŁOPATKA Mirosław Mieczysław BEZP</name><description>Wrocław (a) PSL Wrocław</description><Point><coordinates>17.017227,51.116132</coordinates></Point></Placemark>
<Placemark><styleUrl>#PinX</styleUrl><name>KURZAWA Dariusz PSL</name><description>Jeziora Wielkie PSL Bydgoszcz</description><Point><coordinates>18.222600,52.536707</coordinates></Point></Placemark>
<Placemark><styleUrl>#PinX</styleUrl><name>SIKORA Krzysztof Gustaw BEZP</name><description>Bydgoszcz (a) PSL Bydgoszcz</description><Point><coordinates>18.044971,53.130194</coordinates></Point></Placemark>
<Placemark><styleUrl>#PinX</styleUrl><name>ŚMIGIELSKA Klaudia BEZP</name><description>Bydgoszcz (a) PSL Bydgoszcz</description><Point><coordinates>18.038838,53.126309</coordinates></Point></Placemark>
<Placemark><styleUrl>#PinX</styleUrl><name>KOZŁOWSKA Zofia Władysława PSL</name><description>Żnin PSL Bydgoszcz</description><Point><coordinates>17.717728,52.857311</coordinates></Point></Placemark>
<Placemark><styleUrl>#PinX</styleUrl><name>NAWROT Jadwiga Władysława BEZP</name><description>Inowrocław PSL Bydgoszcz</description><Point><coordinates>18.241085,52.778959</coordinates></Point></Placemark>
<Placemark><styleUrl>#PinX</styleUrl><name>BIERNACKI Jan Kazimierz BEZP</name><description>Złotniki Kujawskie PSL Bydgoszcz</description><Point><coordinates>18.094649,52.899860</coordinates></Point></Placemark>
<Placemark><styleUrl>#PinX</styleUrl><name>KOSZOWSKI Franciszek PSL</name><description>Pruszcz PSL Bydgoszcz</description><Point><coordinates>18.182733,53.315957</coordinates></Point></Placemark>
<Placemark><styleUrl>#PinX</styleUrl><name>ANKIEWICZ-JASIŃSKA Ewa Teresa BEZP</name><description>Bydgoszcz (a) PSL Bydgoszcz</description><Point><coordinates>18.022079,53.134397</coordinates></Point></Placemark>
<Placemark><styleUrl>#PinX</styleUrl><name>KAPUSTA Zbigniew Piotr PSL</name><description>Nowe PSL Bydgoszcz</description><Point><coordinates>18.675196,53.631048</coordinates></Point></Placemark>
<Placemark><styleUrl>#PinX</styleUrl><name>MIŁOWSKI Tomasz Edmund PSL</name><description>Nakło nad Notecią PSL Bydgoszcz</description><Point><coordinates>17.648519,53.144153</coordinates></Point></Placemark>
<Placemark><styleUrl>#PinX</styleUrl><name>SOBIECHOWSKA Hanna Jadwiga PSL</name><description>Sępólno Krajeńskie PSL Bydgoszcz</description><Point><coordinates>17.516472,53.446604</coordinates></Point></Placemark>
<Placemark><styleUrl>#PinX</styleUrl><name>PAZDERSKA Aleksandra Beata BEZP</name><description>Nakło nad Notecią PSL Bydgoszcz</description><Point><coordinates>17.647741,53.136331</coordinates></Point></Placemark>
<Placemark><styleUrl>#PinX</styleUrl><name>RÓŻAŃSKI Krzysztof Janusz BEZP</name><description>Koronowo PSL Bydgoszcz</description><Point><coordinates>17.884439,53.321862</coordinates></Point></Placemark>
<Placemark><styleUrl>#PinX</styleUrl><name>BAGNEROWSKI Tomasz PSL</name><description>Kcynia PSL Bydgoszcz</description><Point><coordinates>17.457181,53.004066</coordinates></Point></Placemark>
<Placemark><styleUrl>#PinX</styleUrl><name>SANKOWSKI Paweł Maksymilian PSL</name><description>Bydgoszcz (a) PSL Bydgoszcz</description><Point><coordinates>18.051500,53.117746</coordinates></Point></Placemark>
<Placemark><styleUrl>#PinX</styleUrl><name>STANEK Aleksandra Maria BEZP</name><description>Mogilno PSL Bydgoszcz</description><Point><coordinates>17.951491,52.629212</coordinates></Point></Placemark>
<Placemark><styleUrl>#PinX</styleUrl><name>URBAŃSKI Łukasz Cyprian PSL</name><description>Świecie PSL Bydgoszcz</description><Point><coordinates>18.451750,53.395246</coordinates></Point></Placemark>
<Placemark><styleUrl>#PinX</styleUrl><name>PROCHOWNIK Wiesława Stanisława PSL</name><description>Gniewkowo PSL Bydgoszcz</description><Point><coordinates>18.428772,52.881653</coordinates></Point></Placemark>
<Placemark><styleUrl>#PinX</styleUrl><name>ROWIŃSKI Grzegorz Czesław BEZP</name><description>Osielsko PSL Bydgoszcz</description><Point><coordinates>18.059690,53.213558</coordinates></Point></Placemark>
<Placemark><styleUrl>#PinX</styleUrl><name>PAWLINA Henryk PSL</name><description>Więcbork PSL Bydgoszcz</description><Point><coordinates>17.431428,53.349097</coordinates></Point></Placemark>
<Placemark><styleUrl>#PinX</styleUrl><name>SŁOMA Jarosław Jan BEZP</name><description>Tuchola PSL Bydgoszcz</description><Point><coordinates>17.890663,53.650242</coordinates></Point></Placemark>
<Placemark><styleUrl>#PinX</styleUrl><name>ŁĄCZNA Kamila Tatiana BEZP</name><description>Białe Błota PSL Bydgoszcz</description><Point><coordinates>17.904235,53.091451</coordinates></Point></Placemark>
<Placemark><styleUrl>#PinX</styleUrl><name>SUPERCZYŃSKI Jacek PSL</name><description>Gąsawa PSL Bydgoszcz</description><Point><coordinates>17.801182,52.764112</coordinates></Point></Placemark>
<Placemark><styleUrl>#PinX</styleUrl><name>MES Ewa Monika PSL</name><description>Dobrcz PSL Bydgoszcz</description><Point><coordinates>18.161485,53.272139</coordinates></Point></Placemark>
<Placemark><styleUrl>#PinX</styleUrl><name>SZRAMKA Paweł BEZP</name><description>Brodnica PSL Toruń</description><Point><coordinates>19.411005,53.254004</coordinates></Point></Placemark>
<Placemark><styleUrl>#PinX</styleUrl><name>SOSNOWSKI Zbigniew PSL</name><description>Świedziebnia PSL Toruń</description><Point><coordinates>19.576293,53.128225</coordinates></Point></Placemark>
<Placemark><styleUrl>#PinX</styleUrl><name>DZIĘCIOŁ Janusz Andrzej BEZP</name><description>Grudziądz PSL Toruń</description><Point><coordinates>18.743153,53.488748</coordinates></Point></Placemark>
<Placemark><styleUrl>#PinX</styleUrl><name>ZAKRZEWSKA Edyta Lidia PSL</name><description>Zławieś Wielka PSL Toruń</description><Point><coordinates>18.335376,53.098594</coordinates></Point></Placemark>
<Placemark><styleUrl>#PinX</styleUrl><name>KIERZKOWSKA Ewa Sławomira PSL</name><description>Włocławek PSL Toruń</description><Point><coordinates>19.063100,52.656255</coordinates></Point></Placemark>
<Placemark><styleUrl>#PinX</styleUrl><name>KACZAN Damian Rafał BEZP</name><description>Toruń PSL Toruń</description><Point><coordinates>18.608951,53.022566</coordinates></Point></Placemark>
<Placemark><styleUrl>#PinX</styleUrl><name>OKRUCIŃSKI Marcin BEZP</name><description>Ciechocin PSL Toruń</description><Point><coordinates>18.919422,53.043169</coordinates></Point></Placemark>
<Placemark><styleUrl>#PinX</styleUrl><name>KICIAK-KUCHARSKA Magdalena PSL</name><description>Aleksandrów Kujawski PSL Toruń</description><Point><coordinates>18.662710,52.867961</coordinates></Point></Placemark>
<Placemark><styleUrl>#PinX</styleUrl><name>GROSS Andrzej Ignacy PSL</name><description>Obrowo PSL Toruń</description><Point><coordinates>18.836881,52.974706</coordinates></Point></Placemark>
<Placemark><styleUrl>#PinX</styleUrl><name>NAJBERG Jarosław Przemysław BEZP</name><description>Brześć Kujawski PSL Toruń</description><Point><coordinates>18.894795,52.627323</coordinates></Point></Placemark>
<Placemark><styleUrl>#PinX</styleUrl><name>STANISZEWSKI Sławomir Franciszek PSL</name><description>Osięciny PSL Toruń</description><Point><coordinates>18.727649,52.648573</coordinates></Point></Placemark>
<Placemark><styleUrl>#PinX</styleUrl><name>KUBCZAK-KOSICKA Anna Maria PSL</name><description>Toruń PSL Toruń</description><Point><coordinates>18.610333,53.013033</coordinates></Point></Placemark>
<Placemark><styleUrl>#PinX</styleUrl><name>KUBACKI Bartosz Damian PSL</name><description>Chełmno PSL Toruń</description><Point><coordinates>18.487439,53.348410</coordinates></Point></Placemark>
<Placemark><styleUrl>#PinX</styleUrl><name>RACHUBIŃSKA Marzena Ewa BEZP</name><description>Kowalewo Pomorskie PSL Toruń</description><Point><coordinates>18.872027,53.146505</coordinates></Point></Placemark>
<Placemark><styleUrl>#PinX</styleUrl><name>SŁOWIK Sławomir BEZP</name><description>Lubicz PSL Toruń</description><Point><coordinates>18.772773,53.043173</coordinates></Point></Placemark>
<Placemark><styleUrl>#PinX</styleUrl><name>BARYŁO Angelika Monika BEZP</name><description>Chełmno PSL Toruń</description><Point><coordinates>18.422354,53.355579</coordinates></Point></Placemark>
<Placemark><styleUrl>#PinX</styleUrl><name>OWCZARZ Andrzej PSL</name><description>Grudziądz PSL Toruń</description><Point><coordinates>18.782483,53.476784</coordinates></Point></Placemark>
<Placemark><styleUrl>#PinX</styleUrl><name>WARSZAWSKA Danuta Ewa PSL</name><description>Chodecz PSL Toruń</description><Point><coordinates>19.026206,52.393025</coordinates></Point></Placemark>
<Placemark><styleUrl>#PinX</styleUrl><name>MAMROT Przemysław BEZP</name><description>Brzuze PSL Toruń</description><Point><coordinates>19.261080,53.054983</coordinates></Point></Placemark>
<Placemark><styleUrl>#PinX</styleUrl><name>MATUSZEWSKA Marika Katarzyna BEZP</name><description>Wąbrzeźno PSL Toruń</description><Point><coordinates>18.954885,53.277800</coordinates></Point></Placemark>
<Placemark><styleUrl>#PinX</styleUrl><name>ŁUCZAK Tomasz PSL</name><description>Toruń PSL Toruń</description><Point><coordinates>18.604693,53.017657</coordinates></Point></Placemark>
<Placemark><styleUrl>#PinX</styleUrl><name>PASTUSZKA Anna PSL</name><description>Grudziądz PSL Toruń</description><Point><coordinates>18.781280,53.475403</coordinates></Point></Placemark>
<Placemark><styleUrl>#PinX</styleUrl><name>KWAPIŃSKI Witold PSL</name><description>Włocławek PSL Toruń</description><Point><coordinates>19.051487,52.666815</coordinates></Point></Placemark>
<Placemark><styleUrl>#PinX</styleUrl><name>BUDZIŃSKA Joanna BEZP</name><description>Kikół PSL Toruń</description><Point><coordinates>19.111765,52.926708</coordinates></Point></Placemark>
<Placemark><styleUrl>#PinX</styleUrl><name>CZARNECKI Krzysztof PSL</name><description>Wielka Nieszawka PSL Toruń</description><Point><coordinates>18.543196,52.946699</coordinates></Point></Placemark>
<Placemark><styleUrl>#PinX</styleUrl><name>BARANOWSKI Krzysztof PSL</name><description>Kikół PSL Toruń</description><Point><coordinates>19.114449,52.919526</coordinates></Point></Placemark>
<Placemark><styleUrl>#PinX</styleUrl><name>ŁOPATA Jan Zbigniew PSL</name><description>Konopnica PSL Lublin</description><Point><coordinates>22.426329,51.216048</coordinates></Point></Placemark>
<Placemark><styleUrl>#PinX</styleUrl><name>KOS Marek PSL</name><description>Kraśnik PSL Lublin</description><Point><coordinates>22.217592,50.944912</coordinates></Point></Placemark>
<Placemark><styleUrl>#PinX</styleUrl><name>SMOLARZ Henryk Józef PSL</name><description>Niemce PSL Lublin</description><Point><coordinates>22.560771,51.346552</coordinates></Point></Placemark>
<Placemark><styleUrl>#PinX</styleUrl><name>KAPUSTA Grzegorz Krzysztof PSL</name><description>Ryki PSL Lublin</description><Point><coordinates>21.962756,51.617627</coordinates></Point></Placemark>
<Placemark><styleUrl>#PinX</styleUrl><name>KRZĘCIO Dariusz Maksymilian BEZP</name><description>Trzebieszów PSL Lublin</description><Point><coordinates>22.534183,52.000909</coordinates></Point></Placemark>
<Placemark><styleUrl>#PinX</styleUrl><name>RZETELSKI Piotr Sławomir PSL</name><description>Baranów PSL Lublin</description><Point><coordinates>22.166654,51.538957</coordinates></Point></Placemark>
<Placemark><styleUrl>#PinX</styleUrl><name>RODZIK Zenon Jerzy BEZP</name><description>Karczmiska PSL Lublin</description><Point><coordinates>21.999859,51.244313</coordinates></Point></Placemark>
<Placemark><styleUrl>#PinX</styleUrl><name>SZYSZKO Grzegorz Stanisław BEZP</name><description>Lubartów PSL Lublin</description><Point><coordinates>22.602873,51.463073</coordinates></Point></Placemark>
<Placemark><styleUrl>#PinX</styleUrl><name>KOPEĆ Marek PSL</name><description>Stanin PSL Lublin</description><Point><coordinates>22.190701,51.890104</coordinates></Point></Placemark>
<Placemark><styleUrl>#PinX</styleUrl><name>KOŁODZIEJCZYK Dariusz Stanisław BEZP</name><description>Piaski PSL Lublin</description><Point><coordinates>22.806797,51.132773</coordinates></Point></Placemark>
<Placemark><styleUrl>#PinX</styleUrl><name>NIEZGODA Marceli Mateusz PSL</name><description>Lublin PSL Lublin</description><Point><coordinates>22.579136,51.211701</coordinates></Point></Placemark>
<Placemark><styleUrl>#PinX</styleUrl><name>KUCHARCZYK Karolina BEZP</name><description>Kłoczew PSL Lublin</description><Point><coordinates>21.963379,51.736634</coordinates></Point></Placemark>
<Placemark><styleUrl>#PinX</styleUrl><name>DUDZIŃSKA Edyta Agnieszka BEZP</name><description>Gościeradów PSL Lublin</description><Point><coordinates>22.007056,50.864301</coordinates></Point></Placemark>
<Placemark><styleUrl>#PinX</styleUrl><name>BEDNARSKI Jerzy Włodzimierz PSL</name><description>Lublin PSL Lublin</description><Point><coordinates>22.575800,51.217989</coordinates></Point></Placemark>
<Placemark><styleUrl>#PinX</styleUrl><name>GRZYWACZEWSKA Anna PSL</name><description>Głusk PSL Lublin</description><Point><coordinates>22.585226,51.170790</coordinates></Point></Placemark>
<Placemark><styleUrl>#PinX</styleUrl><name>SZMIDT Anna PSL</name><description>Janów Lubelski PSL Lublin</description><Point><coordinates>22.388409,50.658180</coordinates></Point></Placemark>
<Placemark><styleUrl>#PinX</styleUrl><name>FRANCZAK Eliza Agata PSL</name><description>Lubartów PSL Lublin</description><Point><coordinates>22.604494,51.452012</coordinates></Point></Placemark>
<Placemark><styleUrl>#PinX</styleUrl><name>CHOCHOWSKI Krzysztof Kamil PSL</name><description>Wąwolnica PSL Lublin</description><Point><coordinates>22.117570,51.303381</coordinates></Point></Placemark>
<Placemark><styleUrl>#PinX</styleUrl><name>STANIBUŁA Daniel BEZP</name><description>Lublin PSL Lublin</description><Point><coordinates>22.574216,51.224654</coordinates></Point></Placemark>
<Placemark><styleUrl>#PinX</styleUrl><name>PIĄTEK Marlena BEZP</name><description>Józefów nad Wisłą PSL Lublin</description><Point><coordinates>21.914863,51.021562</coordinates></Point></Placemark>
<Placemark><styleUrl>#PinX</styleUrl><name>MISIASZEK Magdalena PSL</name><description>Urzędów PSL Lublin</description><Point><coordinates>22.139572,51.010946</coordinates></Point></Placemark>
<Placemark><styleUrl>#PinX</styleUrl><name>KASPRZAK Renata Jolanta BEZP</name><description>Świdnik (a) PSL Lublin</description><Point><coordinates>22.683324,51.208843</coordinates></Point></Placemark>
<Placemark><styleUrl>#PinX</styleUrl><name>DRĄŻYK-ŚWITAJ Urszula Monika BEZP</name><description>Dęblin PSL Lublin</description><Point><coordinates>21.873953,51.563329</coordinates></Point></Placemark>
<Placemark><styleUrl>#PinX</styleUrl><name>BUJAK Małgorzata PSL</name><description>Łęczna PSL Lublin</description><Point><coordinates>22.864650,51.295099</coordinates></Point></Placemark>
<Placemark><styleUrl>#PinX</styleUrl><name>WDOWIAK Magdalena Maria PSL</name><description>Lublin PSL Lublin</description><Point><coordinates>22.568252,51.238320</coordinates></Point></Placemark>
<Placemark><styleUrl>#PinX</styleUrl><name>WILK Jacek Andrzej BEZP</name><description>Nałęczów PSL Lublin</description><Point><coordinates>22.239973,51.310950</coordinates></Point></Placemark>
<Placemark><styleUrl>#PinX</styleUrl><name>RUDNIK Henryk Jan PSL</name><description>Lublin PSL Lublin</description><Point><coordinates>22.539019,51.229755</coordinates></Point></Placemark>
<Placemark><styleUrl>#PinX</styleUrl><name>KOT Barbara BEZP</name><description>Krzywda PSL Lublin</description><Point><coordinates>22.123018,51.785630</coordinates></Point></Placemark>
<Placemark><styleUrl>#PinX</styleUrl><name>ODROBIŃSKA Aneta BEZP</name><description>Puławy PSL Lublin</description><Point><coordinates>21.970867,51.429235</coordinates></Point></Placemark>
<Placemark><styleUrl>#PinX</styleUrl><name>SŁOWIK Daniel PSL</name><description>Łęczna PSL Lublin</description><Point><coordinates>22.867073,51.300713</coordinates></Point></Placemark>
<Placemark><styleUrl>#PinX</styleUrl><name>SACHAJKO Jarosław BEZP</name><description>Zamość PSL Chełm</description><Point><coordinates>23.250761,50.720279</coordinates></Point></Placemark>
<Placemark><styleUrl>#PinX</styleUrl><name>BRATKOWSKI Arkadiusz Tomasz PSL</name><description>Miączyn PSL Chełm</description><Point><coordinates>23.554739,50.740800</coordinates></Point></Placemark>
<Placemark><styleUrl>#PinX</styleUrl><name>LITWINIUK Przemysław PSL</name><description>Międzyrzec Podlaski PSL Chełm</description><Point><coordinates>22.770740,51.978134</coordinates></Point></Placemark>
<Placemark><styleUrl>#PinX</styleUrl><name>RÓŻYŃSKI Wiesław Marian PSL</name><description>Biłgoraj PSL Chełm</description><Point><coordinates>22.674799,50.554163</coordinates></Point></Placemark>
<Placemark><styleUrl>#PinX</styleUrl><name>SMAL Kazimierz PSL</name><description>Ruda-Huta PSL Chełm</description><Point><coordinates>23.618807,51.220652</coordinates></Point></Placemark>
<Placemark><styleUrl>#PinX</styleUrl><name>ROMAŃCZUK Andrzej PSL</name><description>Włodawa PSL Chełm</description><Point><coordinates>23.536639,51.542760</coordinates></Point></Placemark>
<Placemark><styleUrl>#PinX</styleUrl><name>SZYMALA Anna PSL</name><description>Radzyń Podlaski PSL Chełm</description><Point><coordinates>22.624963,51.776707</coordinates></Point></Placemark>
<Placemark><styleUrl>#PinX</styleUrl><name>KOWALCZYK Jan Franciszek PSL</name><description>Telatyn PSL Chełm</description><Point><coordinates>23.880963,50.533522</coordinates></Point></Placemark>
<Placemark><styleUrl>#PinX</styleUrl><name>WIŚNIEWSKA Anna PSL</name><description>Hrubieszów PSL Chełm</description><Point><coordinates>23.925796,50.813838</coordinates></Point></Placemark>
<Placemark><styleUrl>#PinX</styleUrl><name>SUSZCZYŃSKI Sławomir Jan BEZP</name><description>Biała Podlaska PSL Chełm</description><Point><coordinates>23.142176,52.033518</coordinates></Point></Placemark>
<Placemark><styleUrl>#PinX</styleUrl><name>MALESA Marzena Jolanta BEZP</name><description>Biała Podlaska PSL Chełm</description><Point><coordinates>23.141193,52.034973</coordinates></Point></Placemark>
<Placemark><styleUrl>#PinX</styleUrl><name>CZUBA Agnieszka Renata PSL</name><description>Siennica Różana PSL Chełm</description><Point><coordinates>23.335179,51.008360</coordinates></Point></Placemark>
<Placemark><styleUrl>#PinX</styleUrl><name>PIWKO Karolina BEZP</name><description>Zamość PSL Chełm</description><Point><coordinates>23.251448,50.715214</coordinates></Point></Placemark>
<Placemark><styleUrl>#PinX</styleUrl><name>WYPYCH Teodora BEZP</name><description>Radecznica PSL Chełm</description><Point><coordinates>22.827045,50.693832</coordinates></Point></Placemark>
<Placemark><styleUrl>#PinX</styleUrl><name>STANIBUŁA Ryszard Zbigniew BEZP</name><description>Zamość PSL Chełm</description><Point><coordinates>23.256675,50.725058</coordinates></Point></Placemark>
<Placemark><styleUrl>#PinX</styleUrl><name>FORNAL Mirosława Teresa BEZP</name><description>Leśniowice PSL Chełm</description><Point><coordinates>23.498359,50.999523</coordinates></Point></Placemark>
<Placemark><styleUrl>#PinX</styleUrl><name>KAMIŃSKA Irena BEZP</name><description>Hrubieszów (c) PSL Chełm</description><Point><coordinates>23.887802,50.812256</coordinates></Point></Placemark>
<Placemark><styleUrl>#PinX</styleUrl><name>NOWAK Teresa PSL</name><description>Józefów PSL Chełm</description><Point><coordinates>23.067330,50.492142</coordinates></Point></Placemark>
<Placemark><styleUrl>#PinX</styleUrl><name>KOCZKODAJ Bartosz BEZP</name><description>Ulan-Majorat PSL Chełm</description><Point><coordinates>22.465700,51.837298</coordinates></Point></Placemark>
<Placemark><styleUrl>#PinX</styleUrl><name>DZIUBA Anna Bożena PSL</name><description>Tomaszów Lubelski PSL Chełm</description><Point><coordinates>23.422537,50.448752</coordinates></Point></Placemark>
<Placemark><styleUrl>#PinX</styleUrl><name>SIEMAKOWICZ Grzegorz PSL</name><description>Biała Podlaska PSL Chełm</description><Point><coordinates>23.130509,52.024735</coordinates></Point></Placemark>
<Placemark><styleUrl>#PinX</styleUrl><name>WILBIK Marek BEZP</name><description>Łomazy PSL Chełm</description><Point><coordinates>23.167670,51.901492</coordinates></Point></Placemark>
<Placemark><styleUrl>#PinX</styleUrl><name>NOSEK Sławomir Paweł PSL</name><description>Żółkiewka PSL Chełm</description><Point><coordinates>22.845771,50.898686</coordinates></Point></Placemark>
<Placemark><styleUrl>#PinX</styleUrl><name>ZIELIŃSKI Janusz PSL</name><description>Parczew PSL Chełm</description><Point><coordinates>22.910679,51.603554</coordinates></Point></Placemark>
<Placemark><styleUrl>#PinX</styleUrl><name>FEDAK Jolanta Beata PSL</name><description>Zielona Góra (a) PSL Zielona Góra</description><Point><coordinates>15.533993,51.927479</coordinates></Point></Placemark>
<Placemark><styleUrl>#PinX</styleUrl><name>ŚWIREPO Jan PSL</name><description>Strzelce Krajeńskie PSL Zielona Góra</description><Point><coordinates>15.490209,52.904380</coordinates></Point></Placemark>
<Placemark><styleUrl>#PinX</styleUrl><name>GROC Artur Dariusz BEZP</name><description>Słubice PSL Zielona Góra</description><Point><coordinates>14.637462,52.358948</coordinates></Point></Placemark>
<Placemark><styleUrl>#PinX</styleUrl><name>KRÓL Roman Stanisław PSL</name><description>Kłodawa PSL Zielona Góra</description><Point><coordinates>15.257199,52.837069</coordinates></Point></Placemark>
<Placemark><styleUrl>#PinX</styleUrl><name>HARĘŹLAK Wioleta Elżbieta BEZP</name><description>Zielona Góra (a) PSL Zielona Góra</description><Point><coordinates>15.509978,51.921344</coordinates></Point></Placemark>
<Placemark><styleUrl>#PinX</styleUrl><name>TOMCZYSZYN Stanisław PSL</name><description>Brzeźnica PSL Zielona Góra</description><Point><coordinates>15.402985,51.715041</coordinates></Point></Placemark>
<Placemark><styleUrl>#PinX</styleUrl><name>PLEWA Zofia Teresa PSL</name><description>Międzyrzecz PSL Zielona Góra</description><Point><coordinates>15.577817,52.439150</coordinates></Point></Placemark>
<Placemark><styleUrl>#PinX</styleUrl><name>KACZMAREK Jarosław Józef PSL</name><description>Trzciel PSL Zielona Góra</description><Point><coordinates>15.760876,52.358170</coordinates></Point></Placemark>
<Placemark><styleUrl>#PinX</styleUrl><name>KOŁODZIEJ Zbigniew Jan PSL</name><description>Świebodzin PSL Zielona Góra</description><Point><coordinates>15.532746,52.243601</coordinates></Point></Placemark>
<Placemark><styleUrl>#PinX</styleUrl><name>CZEREPKO Iwona Agnieszka BEZP</name><description>Gubin PSL Zielona Góra</description><Point><coordinates>14.747967,51.959285</coordinates></Point></Placemark>
<Placemark><styleUrl>#PinX</styleUrl><name>CHINALSKA Anna PSL</name><description>Krosno Odrzańskie PSL Zielona Góra</description><Point><coordinates>15.093634,52.055942</coordinates></Point></Placemark>
<Placemark><styleUrl>#PinX</styleUrl><name>DĘBICKA Anna Wiesława BEZP</name><description>Gorzów Wielkopolski PSL Zielona Góra</description><Point><coordinates>15.213706,52.721122</coordinates></Point></Placemark>
<Placemark><styleUrl>#PinX</styleUrl><name>KUMOR-PILARCZYK Izabela Ewa PSL</name><description>Żary PSL Zielona Góra</description><Point><coordinates>15.146314,51.628960</coordinates></Point></Placemark>
<Placemark><styleUrl>#PinX</styleUrl><name>HALASZ Marek PSL</name><description>Strzelce Krajeńskie PSL Zielona Góra</description><Point><coordinates>15.486994,52.902958</coordinates></Point></Placemark>
<Placemark><styleUrl>#PinX</styleUrl><name>KULCZYŃSKI Sławomir PSL</name><description>Cybinka PSL Zielona Góra</description><Point><coordinates>14.799730,52.190583</coordinates></Point></Placemark>
<Placemark><styleUrl>#PinX</styleUrl><name>OLEJNICZAK Mirosław Wojciech PSL</name><description>Nowa Sól PSL Zielona Góra</description><Point><coordinates>15.712086,51.801699</coordinates></Point></Placemark>
<Placemark><styleUrl>#PinX</styleUrl><name>WRÓBLEWSKI Dariusz Jerzy BEZP</name><description>Kargowa PSL Zielona Góra</description><Point><coordinates>15.870147,52.069363</coordinates></Point></Placemark>
<Placemark><styleUrl>#PinX</styleUrl><name>GEMBARA Andrzej Janusz PSL</name><description>Zielona Góra (a) PSL Zielona Góra</description><Point><coordinates>15.529399,51.928681</coordinates></Point></Placemark>
<Placemark><styleUrl>#PinX</styleUrl><name>SOŁTYS Antoni Józef PSL</name><description>Kostrzyn nad Odrą PSL Zielona Góra</description><Point><coordinates>14.643459,52.612065</coordinates></Point></Placemark>
<Placemark><styleUrl>#PinX</styleUrl><name>STAROSTA Waldemar Henryk PSL</name><description>Sława PSL Zielona Góra</description><Point><coordinates>16.014528,51.877259</coordinates></Point></Placemark>
<Placemark><styleUrl>#PinX</styleUrl><name>SZUMNA Wanda Elżbieta BEZP</name><description>Gorzów Wielkopolski PSL Zielona Góra</description><Point><coordinates>15.218117,52.743070</coordinates></Point></Placemark>
<Placemark><styleUrl>#PinX</styleUrl><name>KOMAR Anna Sylwia PSL</name><description>Nowa Sól PSL Zielona Góra</description><Point><coordinates>15.785795,51.825140</coordinates></Point></Placemark>
<Placemark><styleUrl>#PinX</styleUrl><name>BRYSZEWSKA Krystyna BEZP</name><description>Krosno Odrzańskie PSL Zielona Góra</description><Point><coordinates>15.094581,52.058726</coordinates></Point></Placemark>
<Placemark><styleUrl>#PinX</styleUrl><name>MEJZA Łukasz BEZP</name><description>Dąbie PSL Zielona Góra</description><Point><coordinates>15.173297,51.979532</coordinates></Point></Placemark>
<Placemark><styleUrl>#PinX</styleUrl><name>BIŃCZYCKA Elżbieta członek partii politycznej: Unia Europejskich Demokratów</name><description>Kraków (a) PSL Łódź</description><Point><coordinates>20.029665,50.066544</coordinates></Point></Placemark>
<Placemark><styleUrl>#PinX</styleUrl><name>SIEMIŃSKI Henryk Stanisław PSL</name><description>Łódź (a) PSL Łódź</description><Point><coordinates>19.484482,51.791084</coordinates></Point></Placemark>
<Placemark><styleUrl>#PinX</styleUrl><name>MAJEWSKI Eugeniusz Paweł PSL</name><description>Łódź (a) PSL Łódź</description><Point><coordinates>19.469017,51.788250</coordinates></Point></Placemark>
<Placemark><styleUrl>#PinX</styleUrl><name>GŁADYSZ Ewa Małgorzata PSL</name><description>Brójce PSL Łódź</description><Point><coordinates>19.643467,51.664988</coordinates></Point></Placemark>
<Placemark><styleUrl>#PinX</styleUrl><name>GRALEWSKA-JAGIEŁŁO Irena PSL</name><description>Brzeziny PSL Łódź</description><Point><coordinates>19.745087,51.800306</coordinates></Point></Placemark>
<Placemark><styleUrl>#PinX</styleUrl><name>ZABOROWSKA-GORZKIEWICZ Klaudia Czesława PSL</name><description>Rzgów PSL Łódź</description><Point><coordinates>19.507335,51.659930</coordinates></Point></Placemark>
<Placemark><styleUrl>#PinX</styleUrl><name>PIONTEK Marcin Tomasz BEZP</name><description>Łódź (a) PSL Łódź</description><Point><coordinates>19.504847,51.793095</coordinates></Point></Placemark>
<Placemark><styleUrl>#PinX</styleUrl><name>KULESZKA Agata BEZP</name><description>Łódź (a) PSL Łódź</description><Point><coordinates>19.501018,51.769332</coordinates></Point></Placemark>
<Placemark><styleUrl>#PinX</styleUrl><name>BEDNAREK Maksymilian Patryk BEZP</name><description>Łódź (a) PSL Łódź</description><Point><coordinates>19.480573,51.782201</coordinates></Point></Placemark>
<Placemark><styleUrl>#PinX</styleUrl><name>KACPRZYCKI Adam Tomasz PSL</name><description>Łódź (a) PSL Łódź</description><Point><coordinates>19.481809,51.764310</coordinates></Point></Placemark>
<Placemark><styleUrl>#PinX</styleUrl><name>LIPSKI Bartłomiej BEZP</name><description>Brzeziny PSL Łódź</description><Point><coordinates>19.741443,51.822240</coordinates></Point></Placemark>
<Placemark><styleUrl>#PinX</styleUrl><name>TOMASIK Sylwia Katarzyna PSL</name><description>Łódź (a) PSL Łódź</description><Point><coordinates>19.465143,51.790627</coordinates></Point></Placemark>
<Placemark><styleUrl>#PinX</styleUrl><name>JACKIEWICZ Jerzy Andrzej PSL</name><description>Łódź (a) PSL Łódź</description><Point><coordinates>19.453213,51.769212</coordinates></Point></Placemark>
<Placemark><styleUrl>#PinX</styleUrl><name>OLEKSIEWICZ Monika Dorota PSL</name><description>Tuszyn PSL Łódź</description><Point><coordinates>19.538394,51.574496</coordinates></Point></Placemark>
<Placemark><styleUrl>#PinX</styleUrl><name>MATYSIAK Michał PSL</name><description>Jeżów PSL Łódź</description><Point><coordinates>19.948550,51.790399</coordinates></Point></Placemark>
<Placemark><styleUrl>#PinX</styleUrl><name>WOJCIECHOWSKI Adam Grzegorz PSL</name><description>Łódź (a) PSL Łódź</description><Point><coordinates>19.477180,51.747702</coordinates></Point></Placemark>
<Placemark><styleUrl>#PinX</styleUrl><name>MIELCZAREK Witold Adam PSL</name><description>Łódź (a) PSL Łódź</description><Point><coordinates>19.474743,51.799252</coordinates></Point></Placemark>
<Placemark><styleUrl>#PinX</styleUrl><name>KASPRZYK-KOSTRZEWA Anna BEZP</name><description>Nowosolna PSL Łódź</description><Point><coordinates>19.613647,51.808837</coordinates></Point></Placemark>
<Placemark><styleUrl>#PinX</styleUrl><name>PIEKIELNY Piotr Witold BEZP</name><description>Łódź (a) PSL Łódź</description><Point><coordinates>19.458798,51.755679</coordinates></Point></Placemark>
<Placemark><styleUrl>#PinX</styleUrl><name>JĘDRASIK Krzysztof Piotr BEZP</name><description>Łódź (a) PSL Łódź</description><Point><coordinates>19.509639,51.775036</coordinates></Point></Placemark>
<Placemark><styleUrl>#PinX</styleUrl><name>KLIMCZAK Dariusz PSL</name><description>Rawa Mazowiecka PSL Piotrków Trybunalski</description><Point><coordinates>20.226224,51.775351</coordinates></Point></Placemark>
<Placemark><styleUrl>#PinX</styleUrl><name>ŁUCZKOWSKI Tomasz BEZP</name><description>Opoczno PSL Piotrków Trybunalski</description><Point><coordinates>20.303056,51.415455</coordinates></Point></Placemark>
<Placemark><styleUrl>#PinX</styleUrl><name>JĘDRASZEK Teresa Małgorzata PSL</name><description>Głuchów PSL Piotrków Trybunalski</description><Point><coordinates>20.085689,51.801663</coordinates></Point></Placemark>
<Placemark><styleUrl>#PinX</styleUrl><name>OŚCIK Elżbieta Teresa PSL</name><description>Wolbórz PSL Piotrków Trybunalski</description><Point><coordinates>19.839613,51.496146</coordinates></Point></Placemark>
<Placemark><styleUrl>#PinX</styleUrl><name>MAJEWSKI Henryk PSL</name><description>Biała Rawska PSL Piotrków Trybunalski</description><Point><coordinates>20.465435,51.818417</coordinates></Point></Placemark>
<Placemark><styleUrl>#PinX</styleUrl><name>KĄCKI Bogdan PSL</name><description>Rzeczyca PSL Piotrków Trybunalski</description><Point><coordinates>20.312024,51.608414</coordinates></Point></Placemark>
<Placemark><styleUrl>#PinX</styleUrl><name>CZECHOWSKA Krystyna PSL</name><description>Piotrków Trybunalski PSL Piotrków Trybunalski</description><Point><coordinates>19.709898,51.411516</coordinates></Point></Placemark>
<Placemark><styleUrl>#PinX</styleUrl><name>FIRST Agnieszka Teresa PSL</name><description>Zelów PSL Piotrków Trybunalski</description><Point><coordinates>19.194658,51.471217</coordinates></Point></Placemark>
<Placemark><styleUrl>#PinX</styleUrl><name>WYSZOGRODZKI Zbigniew Stanisław PSL</name><description>Skierniewice PSL Piotrków Trybunalski</description><Point><coordinates>20.170575,51.957315</coordinates></Point></Placemark>
<Placemark><styleUrl>#PinX</styleUrl><name>GRAŁEK Bożena Maria BEZP</name><description>Tomaszów Mazowiecki PSL Piotrków Trybunalski</description><Point><coordinates>20.025155,51.525154</coordinates></Point></Placemark>
<Placemark><styleUrl>#PinX</styleUrl><name>GÓRSKA Alicja Bogusława PSL</name><description>Żytno PSL Piotrków Trybunalski</description><Point><coordinates>19.701346,50.918736</coordinates></Point></Placemark>
<Placemark><styleUrl>#PinX</styleUrl><name>OLSZEWSKA Grażyna Marianna PSL</name><description>Skierniewice PSL Piotrków Trybunalski</description><Point><coordinates>20.168492,51.954431</coordinates></Point></Placemark>
<Placemark><styleUrl>#PinX</styleUrl><name>WALCZYK Jacek Bogdan PSL</name><description>Drużbice PSL Piotrków Trybunalski</description><Point><coordinates>19.403136,51.467415</coordinates></Point></Placemark>
<Placemark><styleUrl>#PinX</styleUrl><name>ŁOŚ Stanisław PSL</name><description>Wielgomłyny PSL Piotrków Trybunalski</description><Point><coordinates>19.776717,51.013603</coordinates></Point></Placemark>
<Placemark><styleUrl>#PinX</styleUrl><name>ROBAK Barbara Danuta PSL</name><description>Tomaszów Mazowiecki PSL Piotrków Trybunalski</description><Point><coordinates>20.011659,51.505718</coordinates></Point></Placemark>
<Placemark><styleUrl>#PinX</styleUrl><name>PAZUREK Damian Piotr PSL</name><description>Mniszków PSL Piotrków Trybunalski</description><Point><coordinates>19.976403,51.388699</coordinates></Point></Placemark>
<Placemark><styleUrl>#PinX</styleUrl><name>SKORUPA Ewelina PSL</name><description>Gorzkowice PSL Piotrków Trybunalski</description><Point><coordinates>19.613756,51.205463</coordinates></Point></Placemark>
<Placemark><styleUrl>#PinX</styleUrl><name>MAZUR Marek Marian PSL</name><description>Piotrków Trybunalski PSL Piotrków Trybunalski</description><Point><coordinates>19.716114,51.422638</coordinates></Point></Placemark>
<Placemark><styleUrl>#PinX</styleUrl><name>BEJDA Paweł Jan PSL</name><description>Łowicz PSL Sieradz</description><Point><coordinates>19.941431,52.101285</coordinates></Point></Placemark>
<Placemark><styleUrl>#PinX</styleUrl><name>ZIĘBA-GZIK Jolanta PSL</name><description>Zduńska Wola PSL Sieradz</description><Point><coordinates>18.958524,51.596454</coordinates></Point></Placemark>
<Placemark><styleUrl>#PinX</styleUrl><name>NOWAK Adam Paweł PSL</name><description>Strzelce Wielkie PSL Sieradz</description><Point><coordinates>19.179034,51.133851</coordinates></Point></Placemark>
<Placemark><styleUrl>#PinX</styleUrl><name>NAWROCKA Elżbieta Renata PSL</name><description>Wieruszów PSL Sieradz</description><Point><coordinates>18.163947,51.324738</coordinates></Point></Placemark>
<Placemark><styleUrl>#PinX</styleUrl><name>JAROTA Bogdan Ryszard PSL</name><description>Głowno PSL Sieradz</description><Point><coordinates>19.683014,51.986694</coordinates></Point></Placemark>
<Placemark><styleUrl>#PinX</styleUrl><name>WOŹNIAK Tomasz PSL</name><description>Wróblew PSL Sieradz</description><Point><coordinates>18.591962,51.600760</coordinates></Point></Placemark>
<Placemark><styleUrl>#PinX</styleUrl><name>STASIAK Zbigniew Marek PSL</name><description>Pabianice PSL Sieradz</description><Point><coordinates>19.321222,51.661730</coordinates></Point></Placemark>
<Placemark><styleUrl>#PinX</styleUrl><name>PACHOLSKI Michał Tomasz PSL</name><description>Łęczyca PSL Sieradz</description><Point><coordinates>19.201210,52.054975</coordinates></Point></Placemark>
<Placemark><styleUrl>#PinX</styleUrl><name>KRAWCZYK Marek Jan PSL</name><description>Sędziejowice PSL Sieradz</description><Point><coordinates>19.034891,51.511486</coordinates></Point></Placemark>
<Placemark><styleUrl>#PinX</styleUrl><name>BEDNAREK Ewa PSL</name><description>Zadzim PSL Sieradz</description><Point><coordinates>18.909314,51.785251</coordinates></Point></Placemark>
<Placemark><styleUrl>#PinX</styleUrl><name>JANKOWSKI Marek PSL</name><description>Bedlno PSL Sieradz</description><Point><coordinates>19.610790,52.176340</coordinates></Point></Placemark>
<Placemark><styleUrl>#PinX</styleUrl><name>KARNISZEWSKI Andrzej PSL</name><description>Żychlin PSL Sieradz</description><Point><coordinates>19.648971,52.233634</coordinates></Point></Placemark>
<Placemark><styleUrl>#PinX</styleUrl><name>PLEWIŃSKI Paweł Krzysztof PSL</name><description>Poddębice PSL Sieradz</description><Point><coordinates>18.903822,51.882211</coordinates></Point></Placemark>
<Placemark><styleUrl>#PinX</styleUrl><name>TERKA Michał Waldemar PSL</name><description>Sieradz PSL Sieradz</description><Point><coordinates>18.741532,51.600225</coordinates></Point></Placemark>
<Placemark><styleUrl>#PinX</styleUrl><name>KACZOROWSKA Maria BEZP</name><description>Aleksandrów Łódzki PSL Sieradz</description><Point><coordinates>19.245997,51.826769</coordinates></Point></Placemark>
<Placemark><styleUrl>#PinX</styleUrl><name>ŁABĘDZKI Marcin PSL</name><description>Zduńska Wola PSL Sieradz</description><Point><coordinates>18.920601,51.621482</coordinates></Point></Placemark>
<Placemark><styleUrl>#PinX</styleUrl><name>BŁACH Alina PSL</name><description>Pątnów PSL Sieradz</description><Point><coordinates>18.659442,51.118459</coordinates></Point></Placemark>
<Placemark><styleUrl>#PinX</styleUrl><name>ŻÓRAW Andrzej PSL</name><description>Sokolniki PSL Sieradz</description><Point><coordinates>18.340779,51.317536</coordinates></Point></Placemark>
<Placemark><styleUrl>#PinX</styleUrl><name>KRAWCZYK Ewa Anna PSL</name><description>Świnice Warckie PSL Sieradz</description><Point><coordinates>18.939094,52.045497</coordinates></Point></Placemark>
<Placemark><styleUrl>#PinX</styleUrl><name>ROMANOW-PRZYBYLAK Justyna Agnieszka PSL</name><description>Zgierz PSL Sieradz</description><Point><coordinates>19.389430,51.850137</coordinates></Point></Placemark>
<Placemark><styleUrl>#PinX</styleUrl><name>MORGA Agnieszka PSL</name><description>Nowa Brzeźnica PSL Sieradz</description><Point><coordinates>19.136268,51.051065</coordinates></Point></Placemark>
<Placemark><styleUrl>#PinX</styleUrl><name>CZUPRYNIAK Danuta PSL</name><description>Buczek PSL Sieradz</description><Point><coordinates>19.176954,51.522204</coordinates></Point></Placemark>
<Placemark><styleUrl>#PinX</styleUrl><name>GRZEGORY Adam PSL</name><description>Zduny PSL Sieradz</description><Point><coordinates>19.788746,52.168498</coordinates></Point></Placemark>
<Placemark><styleUrl>#PinX</styleUrl><name>STĘPIEŃ Andrzej Paweł PSL</name><description>Wierzchlas PSL Sieradz</description><Point><coordinates>18.734513,51.161193</coordinates></Point></Placemark>
<Placemark><styleUrl>#PinX</styleUrl><name>BRYNKUS Józef BEZP</name><description>Wadowice PSL Kraków</description><Point><coordinates>19.528583,49.850675</coordinates></Point></Placemark>
<Placemark><styleUrl>#PinX</styleUrl><name>KAŁA Józef PSL</name><description>Polanka Wielka PSL Kraków</description><Point><coordinates>19.306134,49.984248</coordinates></Point></Placemark>
<Placemark><styleUrl>#PinX</styleUrl><name>HERBUT Dawid Julian BEZP</name><description>Kalwaria Zebrzydowska PSL Kraków</description><Point><coordinates>19.671764,49.887481</coordinates></Point></Placemark>
<Placemark><styleUrl>#PinX</styleUrl><name>ZAWADZKI Grzegorz Roman BEZP</name><description>Brzeszcze PSL Kraków</description><Point><coordinates>19.141046,49.975269</coordinates></Point></Placemark>
<Placemark><styleUrl>#PinX</styleUrl><name>DĘBIŃSKA Maria BEZP</name><description>Maków Podhalański PSL Kraków</description><Point><coordinates>19.685358,49.703288</coordinates></Point></Placemark>
<Placemark><styleUrl>#PinX</styleUrl><name>GOŁĄB Katarzyna BEZP</name><description>Tomice PSL Kraków</description><Point><coordinates>19.517622,49.926556</coordinates></Point></Placemark>
<Placemark><styleUrl>#PinX</styleUrl><name>BOLEK Magdalena BEZP</name><description>Babice PSL Kraków</description><Point><coordinates>19.447044,50.059774</coordinates></Point></Placemark>
<Placemark><styleUrl>#PinX</styleUrl><name>BEDRA Renata Barbara BEZP</name><description>Brzeszcze PSL Kraków</description><Point><coordinates>19.152553,49.977093</coordinates></Point></Placemark>
<Placemark><styleUrl>#PinX</styleUrl><name>MICHALEC Sylwia BEZP</name><description>Spytkowice PSL Kraków</description><Point><coordinates>19.526571,49.986852</coordinates></Point></Placemark>
<Placemark><styleUrl>#PinX</styleUrl><name>SIKORA Marek Andrzej BEZP</name><description>Sułkowice PSL Kraków</description><Point><coordinates>19.811485,49.848031</coordinates></Point></Placemark>
<Placemark><styleUrl>#PinX</styleUrl><name>HYJEK Ewa Maria PSL</name><description>Myślenice PSL Kraków</description><Point><coordinates>19.950839,49.852103</coordinates></Point></Placemark>
<Placemark><styleUrl>#PinX</styleUrl><name>PAJĄK Dorota BEZP</name><description>Wadowice PSL Kraków</description><Point><coordinates>19.535885,49.864522</coordinates></Point></Placemark>
<Placemark><styleUrl>#PinX</styleUrl><name>JAKUBOWSKI Tomasz Marek PSL</name><description>Wadowice PSL Kraków</description><Point><coordinates>19.529550,49.852058</coordinates></Point></Placemark>
<Placemark><styleUrl>#PinX</styleUrl><name>KIERPIEC Daniel Józef BEZP</name><description>Kęty PSL Kraków</description><Point><coordinates>19.236878,49.905624</coordinates></Point></Placemark>
<Placemark><styleUrl>#PinX</styleUrl><name>GÓRECKI Andrzej PSL</name><description>Wadowice PSL Kraków</description><Point><coordinates>19.531047,49.868715</coordinates></Point></Placemark>
<Placemark><styleUrl>#PinX</styleUrl><name>MOTYKA Miłosz Maksymilian PSL</name><description>Tokarnia PSL Kraków</description><Point><coordinates>19.866164,49.735931</coordinates></Point></Placemark>
<Placemark><styleUrl>#PinX</styleUrl><name>ŚCIGAJ Agnieszka BEZP</name><description>Klucze PSL Kraków</description><Point><coordinates>19.567666,50.366691</coordinates></Point></Placemark>
<Placemark><styleUrl>#PinX</styleUrl><name>KEMPF Piotr Marek PSL</name><description>Kraków (a) PSL Kraków</description><Point><coordinates>20.036141,50.058891</coordinates></Point></Placemark>
<Placemark><styleUrl>#PinX</styleUrl><name>PATENA Marta Elżbieta BEZP</name><description>Kraków (a) PSL Kraków</description><Point><coordinates>20.000992,50.031917</coordinates></Point></Placemark>
<Placemark><styleUrl>#PinX</styleUrl><name>WANTUCH Łukasz Mariusz BEZP</name><description>Kraków (a) PSL Kraków</description><Point><coordinates>20.012812,50.067582</coordinates></Point></Placemark>
<Placemark><styleUrl>#PinX</styleUrl><name>PUŁKA Jerzy PSL</name><description>Gołcza PSL Kraków</description><Point><coordinates>19.921664,50.328999</coordinates></Point></Placemark>
<Placemark><styleUrl>#PinX</styleUrl><name>STACH Beata Katarzyna StronnictwoDemokratyczne</name><description>Kraków (a) PSL Kraków</description><Point><coordinates>19.990489,50.031082</coordinates></Point></Placemark>
<Placemark><styleUrl>#PinX</styleUrl><name>SZCZOCZARZ Bartłomiej Andrzej PSL</name><description>Zabierzów PSL Kraków</description><Point><coordinates>19.764772,50.123050</coordinates></Point></Placemark>
<Placemark><styleUrl>#PinX</styleUrl><name>ZIELNIK-PIELKA Joanna Małgorzata BEZP</name><description>Wolbrom PSL Kraków</description><Point><coordinates>19.743272,50.387285</coordinates></Point></Placemark>
<Placemark><styleUrl>#PinX</styleUrl><name>LĘCZNAROWICZ Elżbieta Janina BEZP</name><description>Kraków (a) PSL Kraków</description><Point><coordinates>20.021827,50.053260</coordinates></Point></Placemark>
<Placemark><styleUrl>#PinX</styleUrl><name>GAJĘCKA Jolanta Anna BEZP</name><description>Kraków (a) PSL Kraków</description><Point><coordinates>20.011202,50.052940</coordinates></Point></Placemark>
<Placemark><styleUrl>#PinX</styleUrl><name>KLEMPA Przemysław Zbigniew StronnictwoDemokratyczne</name><description>Kraków (a) PSL Kraków</description><Point><coordinates>20.031657,50.058071</coordinates></Point></Placemark>
<Placemark><styleUrl>#PinX</styleUrl><name>PASZKOT Marzena Iwona PSL</name><description>Kraków (a) PSL Kraków</description><Point><coordinates>19.985197,50.024607</coordinates></Point></Placemark>
<Placemark><styleUrl>#PinX</styleUrl><name>APOSTOŁ Marian BEZP</name><description>Kraków (a) PSL Kraków</description><Point><coordinates>20.011044,50.033385</coordinates></Point></Placemark>
<Placemark><styleUrl>#PinX</styleUrl><name>OKRAJEK Włodzimierz Wiktor PSL</name><description>Kocmyrzów-Luborzyca PSL Kraków</description><Point><coordinates>20.117481,50.155800</coordinates></Point></Placemark>
<Placemark><styleUrl>#PinX</styleUrl><name>POBĘDZA Czesław Maciej BEZP</name><description>Iwanowice PSL Kraków</description><Point><coordinates>19.975975,50.226942</coordinates></Point></Placemark>
<Placemark><styleUrl>#PinX</styleUrl><name>MITKA Katarzyna Helena PSL</name><description>Krzeszowice PSL Kraków</description><Point><coordinates>19.619411,50.133304</coordinates></Point></Placemark>
<Placemark><styleUrl>#PinX</styleUrl><name>FLOREK Marcin Grzegorz StronnictwoDemokratyczne</name><description>Kraków (a) PSL Kraków</description><Point><coordinates>20.034557,50.043880</coordinates></Point></Placemark>
<Placemark><styleUrl>#PinX</styleUrl><name>KURTYKA Halina Ewa PSL</name><description>Zabierzów PSL Kraków</description><Point><coordinates>19.770593,50.120162</coordinates></Point></Placemark>
<Placemark><styleUrl>#PinX</styleUrl><name>SŁAWOMIRSKI Radosław Paweł LigaPolskichRodzin</name><description>Kraków (a) PSL Kraków</description><Point><coordinates>20.007639,50.046562</coordinates></Point></Placemark>
<Placemark><styleUrl>#PinX</styleUrl><name>STRUTYŃSKI Łukasz Andrzej BEZP</name><description>Kraków (a) PSL Kraków</description><Point><coordinates>19.989064,50.073140</coordinates></Point></Placemark>
<Placemark><styleUrl>#PinX</styleUrl><name>SOSENKO Krzysztof Jan PSL</name><description>Kraków (a) PSL Kraków</description><Point><coordinates>20.002903,50.012278</coordinates></Point></Placemark>
<Placemark><styleUrl>#PinX</styleUrl><name>PASTERNAK Janusz Mariusz PSL</name><description>Sułoszowa PSL Kraków</description><Point><coordinates>19.752925,50.257960</coordinates></Point></Placemark>
<Placemark><styleUrl>#PinX</styleUrl><name>DRWAL Dawid Marek BEZP</name><description>Kraków (a) PSL Kraków</description><Point><coordinates>19.998848,50.072268</coordinates></Point></Placemark>
<Placemark><styleUrl>#PinX</styleUrl><name>SZWED Barbara Ewa BEZP</name><description>Kraków (a) PSL Kraków</description><Point><coordinates>19.973757,50.055330</coordinates></Point></Placemark>
<Placemark><styleUrl>#PinX</styleUrl><name>MACHNIK Grzegorz Józef PSL</name><description>Skawina PSL Kraków</description><Point><coordinates>19.758752,49.942332</coordinates></Point></Placemark>
<Placemark><styleUrl>#PinX</styleUrl><name>WÓJCIK Adam Bernard BEZP</name><description>Skawina PSL Kraków</description><Point><coordinates>19.765585,49.942102</coordinates></Point></Placemark>
<Placemark><styleUrl>#PinX</styleUrl><name>DZIEDZIC Stanisław BEZP</name><description>Kraków (a) PSL Kraków</description><Point><coordinates>19.988956,50.067684</coordinates></Point></Placemark>
<Placemark><styleUrl>#PinX</styleUrl><name>PROKOP-STASZECKA Anna Barbara PSL</name><description>Kraków (a) PSL Kraków</description><Point><coordinates>19.998086,50.055643</coordinates></Point></Placemark>
<Placemark><styleUrl>#PinX</styleUrl><name>NOWOGÓRSKA Urszula Teresa PSL</name><description>Łukowica PSL Nowy Sącz</description><Point><coordinates>20.464654,49.627100</coordinates></Point></Placemark>
<Placemark><styleUrl>#PinX</styleUrl><name>KOLBRECKA Józefa PSL</name><description>Biały Dunajec PSL Nowy Sącz</description><Point><coordinates>20.011445,49.366036</coordinates></Point></Placemark>
<Placemark><styleUrl>#PinX</styleUrl><name>TUMIDAJEWICZ Iwona Agnieszka PSL</name><description>Biecz PSL Nowy Sącz</description><Point><coordinates>21.210976,49.724309</coordinates></Point></Placemark>
<Placemark><styleUrl>#PinX</styleUrl><name>KRYGOWSKI Anatol BEZP</name><description>Gorlice PSL Nowy Sącz</description><Point><coordinates>21.165444,49.671159</coordinates></Point></Placemark>
<Placemark><styleUrl>#PinX</styleUrl><name>PÓŁCHŁOPEK Małgorzata Krystyna BEZP</name><description>Krynica-Zdrój PSL Nowy Sącz</description><Point><coordinates>20.990908,49.445495</coordinates></Point></Placemark>
<Placemark><styleUrl>#PinX</styleUrl><name>KIEŁBASA Katarzyna Maria PSL</name><description>Korzenna PSL Nowy Sącz</description><Point><coordinates>20.836663,49.699667</coordinates></Point></Placemark>
<Placemark><styleUrl>#PinX</styleUrl><name>BARAN Grzegorz PSL</name><description>Podegrodzie PSL Nowy Sącz</description><Point><coordinates>20.569360,49.596107</coordinates></Point></Placemark>
<Placemark><styleUrl>#PinX</styleUrl><name>PALUCH Przemysław Marcin BEZP</name><description>Nowy Targ PSL Nowy Sącz</description><Point><coordinates>20.053767,49.483060</coordinates></Point></Placemark>
<Placemark><styleUrl>#PinX</styleUrl><name>BIAŁOŃ Maria Barbara PSL</name><description>Ropa PSL Nowy Sącz</description><Point><coordinates>21.061357,49.571411</coordinates></Point></Placemark>
<Placemark><styleUrl>#PinX</styleUrl><name>BARNA Andrzej PSL</name><description>Uście Gorlickie PSL Nowy Sącz</description><Point><coordinates>21.171405,49.487653</coordinates></Point></Placemark>
<Placemark><styleUrl>#PinX</styleUrl><name>JANUS Mirosław Stanisław PSL</name><description>Nowy Targ PSL Nowy Sącz</description><Point><coordinates>20.043157,49.488967</coordinates></Point></Placemark>
<Placemark><styleUrl>#PinX</styleUrl><name>BĄK Maria BEZP</name><description>Nowy Targ PSL Nowy Sącz</description><Point><coordinates>20.049452,49.488990</coordinates></Point></Placemark>
<Placemark><styleUrl>#PinX</styleUrl><name>POPŁAWSKA Irena Barbara PSL</name><description>Mszana Dolna PSL Nowy Sącz</description><Point><coordinates>20.076986,49.681527</coordinates></Point></Placemark>
<Placemark><styleUrl>#PinX</styleUrl><name>GRABSKA Wioletta Dorota BEZP</name><description>Gorlice PSL Nowy Sącz</description><Point><coordinates>21.160576,49.669135</coordinates></Point></Placemark>
<Placemark><styleUrl>#PinX</styleUrl><name>FILAS Krzysztof BEZP</name><description>Biały Dunajec PSL Nowy Sącz</description><Point><coordinates>20.012090,49.370955</coordinates></Point></Placemark>
<Placemark><styleUrl>#PinX</styleUrl><name>TYLKA Maria PSL</name><description>Kościelisko PSL Nowy Sącz</description><Point><coordinates>19.849519,49.273780</coordinates></Point></Placemark>
<Placemark><styleUrl>#PinX</styleUrl><name>RAPCIAK Hubert Jan PSL</name><description>Niedźwiedź PSL Nowy Sącz</description><Point><coordinates>20.110447,49.596352</coordinates></Point></Placemark>
<Placemark><styleUrl>#PinX</styleUrl><name>WÓJCIAK Małgorzata PSL</name><description>Jabłonka PSL Nowy Sącz</description><Point><coordinates>19.675751,49.504573</coordinates></Point></Placemark>
<Placemark><styleUrl>#PinX</styleUrl><name>CZARNECKI Rafał Marcin BEZP</name><description>Nowy Sącz PSL Nowy Sącz</description><Point><coordinates>20.700131,49.598169</coordinates></Point></Placemark>
<Placemark><styleUrl>#PinX</styleUrl><name>PASOŃ Stanisław Wojciech PSL</name><description>Stary Sącz PSL Nowy Sącz</description><Point><coordinates>20.632090,49.525816</coordinates></Point></Placemark>
<Placemark><styleUrl>#PinX</styleUrl><name>KOSINIAK-KAMYSZ Władysław Marcin PSL</name><description>Kraków (a) PSL Tarnów</description><Point><coordinates>19.993549,50.017309</coordinates></Point></Placemark>
<Placemark><styleUrl>#PinX</styleUrl><name>KORDULA Joanna Ewa BEZP</name><description>Wieliczka PSL Tarnów</description><Point><coordinates>20.055835,49.983431</coordinates></Point></Placemark>
<Placemark><styleUrl>#PinX</styleUrl><name>SORYS Stanisław Andrzej PSL</name><description>Pleśna PSL Tarnów</description><Point><coordinates>20.904965,49.916236</coordinates></Point></Placemark>
<Placemark><styleUrl>#PinX</styleUrl><name>DROŻDŻAK Ryszard PSL</name><description>Łapanów PSL Tarnów</description><Point><coordinates>20.305859,49.864130</coordinates></Point></Placemark>
<Placemark><styleUrl>#PinX</styleUrl><name>GAWEŁ Marcin Stanisław PSL</name><description>Pałecznica PSL Tarnów</description><Point><coordinates>20.308652,50.274367</coordinates></Point></Placemark>
<Placemark><styleUrl>#PinX</styleUrl><name>KAMIŃSKI Bogusław PSL</name><description>Iwkowa PSL Tarnów</description><Point><coordinates>20.574089,49.798141</coordinates></Point></Placemark>
<Placemark><styleUrl>#PinX</styleUrl><name>DUDA Grzegorz PSL</name><description>Wietrzychowice PSL Tarnów</description><Point><coordinates>20.746155,50.196783</coordinates></Point></Placemark>
<Placemark><styleUrl>#PinX</styleUrl><name>SKALAK Anna Teresa PSL</name><description>Żabno PSL Tarnów</description><Point><coordinates>20.856349,50.131703</coordinates></Point></Placemark>
<Placemark><styleUrl>#PinX</styleUrl><name>BIEDROŃ Adam Roman PSL</name><description>Żabno PSL Tarnów</description><Point><coordinates>20.852934,50.135681</coordinates></Point></Placemark>
<Placemark><styleUrl>#PinX</styleUrl><name>ŁAKOMA Maria Stefania BEZP</name><description>Koniusza PSL Tarnów</description><Point><coordinates>20.212947,50.179454</coordinates></Point></Placemark>
<Placemark><styleUrl>#PinX</styleUrl><name>ZALEWSKI Marian Józef BEZP</name><description>Szczurowa PSL Tarnów</description><Point><coordinates>20.632876,50.118089</coordinates></Point></Placemark>
<Placemark><styleUrl>#PinX</styleUrl><name>DĄBROŚ Stella Józefa BEZP</name><description>Szczucin PSL Tarnów</description><Point><coordinates>21.105213,50.293907</coordinates></Point></Placemark>
<Placemark><styleUrl>#PinX</styleUrl><name>ŻAK Tadeusz Kazimierz BEZP</name><description>Tarnów PSL Tarnów</description><Point><coordinates>20.976187,50.013952</coordinates></Point></Placemark>
<Placemark><styleUrl>#PinX</styleUrl><name>POWROŹNIK Magdalena Anna BEZP</name><description>Dębno PSL Tarnów</description><Point><coordinates>20.718228,49.946567</coordinates></Point></Placemark>
<Placemark><styleUrl>#PinX</styleUrl><name>CHMIELA Artur Piotr BEZP</name><description>Biskupice PSL Tarnów</description><Point><coordinates>20.143437,49.963120</coordinates></Point></Placemark>
<Placemark><styleUrl>#PinX</styleUrl><name>MYŚKÓW-SKOCZEK Beata Maria BEZP</name><description>Bochnia PSL Tarnów</description><Point><coordinates>20.418157,49.995202</coordinates></Point></Placemark>
<Placemark><styleUrl>#PinX</styleUrl><name>TOKARCZYK-KOZIOŁ Małgorzata Anna PSL</name><description>Lisia Góra PSL Tarnów</description><Point><coordinates>21.068195,50.099426</coordinates></Point></Placemark>
<Placemark><styleUrl>#PinX</styleUrl><name>MIKOS Marcin Krzysztof BEZP</name><description>Kraków (a) PSL Tarnów</description><Point><coordinates>20.023710,50.074414</coordinates></Point></Placemark>
<Placemark><styleUrl>#PinX</styleUrl><name>ZGORZELSKI Piotr PSL</name><description>Bielsk PSL Płock</description><Point><coordinates>19.811864,52.663831</coordinates></Point></Placemark>
<Placemark><styleUrl>#PinX</styleUrl><name>ORLIŃSKI Mirosław Adam PSL</name><description>Sochaczew PSL Płock</description><Point><coordinates>20.243271,52.234409</coordinates></Point></Placemark>
<Placemark><styleUrl>#PinX</styleUrl><name>WOJNAROWSKI Konrad PSL</name><description>Szydłowo PSL Płock</description><Point><coordinates>20.495321,53.088077</coordinates></Point></Placemark>
<Placemark><styleUrl>#PinX</styleUrl><name>SZCZEPANKOWSKI Zenon PSL</name><description>Chorzele PSL Płock</description><Point><coordinates>20.939284,53.274496</coordinates></Point></Placemark>
<Placemark><styleUrl>#PinX</styleUrl><name>WRÓBLEWSKA Maria Bożena PSL</name><description>Sanniki PSL Płock</description><Point><coordinates>19.867613,52.334936</coordinates></Point></Placemark>
<Placemark><styleUrl>#PinX</styleUrl><name>RZYMOWSKI Jerzy PSL</name><description>Kuczbork-Osada PSL Płock</description><Point><coordinates>20.031510,53.101257</coordinates></Point></Placemark>
<Placemark><styleUrl>#PinX</styleUrl><name>SIEROCKA Iwona PSL</name><description>Płock PSL Płock</description><Point><coordinates>19.717021,52.542380</coordinates></Point></Placemark>
<Placemark><styleUrl>#PinX</styleUrl><name>LEWANDOWSKI Łukasz PSL</name><description>Ciechanów PSL Płock</description><Point><coordinates>20.620978,52.872534</coordinates></Point></Placemark>
<Placemark><styleUrl>#PinX</styleUrl><name>RYZIŃSKI Jacek PSL</name><description>Sochocin PSL Płock</description><Point><coordinates>20.491775,52.674430</coordinates></Point></Placemark>
<Placemark><styleUrl>#PinX</styleUrl><name>SOSNOWSKI Michał BEZP</name><description>Płock PSL Płock</description><Point><coordinates>19.720679,52.525856</coordinates></Point></Placemark>
<Placemark><styleUrl>#PinX</styleUrl><name>SZUSTAKIEWICZ Wojciech BEZP</name><description>Mszczonów PSL Płock</description><Point><coordinates>20.543915,51.933474</coordinates></Point></Placemark>
<Placemark><styleUrl>#PinX</styleUrl><name>DURCZAK KUŹMIŃSKA Katarzyna BEZP</name><description>Teresin PSL Płock</description><Point><coordinates>20.397107,52.186009</coordinates></Point></Placemark>
<Placemark><styleUrl>#PinX</styleUrl><name>DERLUKIEWICZ Anna PSL</name><description>Płock PSL Płock</description><Point><coordinates>19.724100,52.540919</coordinates></Point></Placemark>
<Placemark><styleUrl>#PinX</styleUrl><name>KOPER Karolina Agnieszka BEZP</name><description>Mała Wieś PSL Płock</description><Point><coordinates>20.088224,52.449064</coordinates></Point></Placemark>
<Placemark><styleUrl>#PinX</styleUrl><name>RZESZOTARSKI Piotr Łukasz BEZP</name><description>Sierpc PSL Płock</description><Point><coordinates>19.664950,52.858091</coordinates></Point></Placemark>
<Placemark><styleUrl>#PinX</styleUrl><name>MIRGOS-KILANOWSKA Nina PSL</name><description>Wiskitki PSL Płock</description><Point><coordinates>20.351476,52.077852</coordinates></Point></Placemark>
<Placemark><styleUrl>#PinX</styleUrl><name>SOSIŃSKA-OSIECKA Agata Ewa PSL</name><description>Płońsk PSL Płock</description><Point><coordinates>20.359462,52.621925</coordinates></Point></Placemark>
<Placemark><styleUrl>#PinX</styleUrl><name>APTEWICZ Elżbieta Urszula BEZP</name><description>Mława PSL Płock</description><Point><coordinates>20.377293,53.133621</coordinates></Point></Placemark>
<Placemark><styleUrl>#PinX</styleUrl><name>SMOLIŃSKA Anna BEZP</name><description>Ciechanów PSL Płock</description><Point><coordinates>20.614991,52.864163</coordinates></Point></Placemark>
<Placemark><styleUrl>#PinX</styleUrl><name>KOMINEK Tomasz PSL</name><description>Płock PSL Płock</description><Point><coordinates>19.705802,52.528198</coordinates></Point></Placemark>
<Placemark><styleUrl>#PinX</styleUrl><name>MALISZEWSKI Mirosław Wojciech PSL</name><description>Grójec PSL Radom</description><Point><coordinates>20.885981,51.873835</coordinates></Point></Placemark>
<Placemark><styleUrl>#PinX</styleUrl><name>GRABOWSKI Dariusz Maciej członek partii politycznej: Polska Nas Potrzebuje</name><description>Mst Warszawa (a) PSL Radom</description><Point><coordinates>21.088242,52.201459</coordinates></Point></Placemark>
<Placemark><styleUrl>#PinX</styleUrl><name>JAWORSKA Bogusława Janina PSL</name><description>Zwoleń PSL Radom</description><Point><coordinates>21.574850,51.346974</coordinates></Point></Placemark>
<Placemark><styleUrl>#PinX</styleUrl><name>DUSZYK Adam Benon PSL</name><description>Radom (a) PSL Radom</description><Point><coordinates>21.149734,51.408517</coordinates></Point></Placemark>
<Placemark><styleUrl>#PinX</styleUrl><name>FIDOS Robert Sylwester PSL</name><description>Przysucha PSL Radom</description><Point><coordinates>20.630576,51.341592</coordinates></Point></Placemark>
<Placemark><styleUrl>#PinX</styleUrl><name>DOBOSZ Robert PSL</name><description>Jedlińsk PSL Radom</description><Point><coordinates>21.112912,51.514850</coordinates></Point></Placemark>
<Placemark><styleUrl>#PinX</styleUrl><name>MALEC Ewa PSL</name><description>Kozienice PSL Radom</description><Point><coordinates>21.530173,51.600956</coordinates></Point></Placemark>
<Placemark><styleUrl>#PinX</styleUrl><name>NALEWAJKO Irena PSL</name><description>Pionki PSL Radom</description><Point><coordinates>21.443713,51.472638</coordinates></Point></Placemark>
<Placemark><styleUrl>#PinX</styleUrl><name>JAROSZEK-NOWAK Ilona Dorota PSL</name><description>Radom (a) PSL Radom</description><Point><coordinates>21.165953,51.421720</coordinates></Point></Placemark>
<Placemark><styleUrl>#PinX</styleUrl><name>DUDEK Jadwiga BEZP</name><description>Ciepielów PSL Radom</description><Point><coordinates>21.542163,51.241686</coordinates></Point></Placemark>
<Placemark><styleUrl>#PinX</styleUrl><name>ŚLIFIRCZYK Mirosław PSL</name><description>Zakrzew PSL Radom</description><Point><coordinates>21.022206,51.446352</coordinates></Point></Placemark>
<Placemark><styleUrl>#PinX</styleUrl><name>STOLARCZYK Agnieszka Barbara PSL</name><description>Radom (a) PSL Radom</description><Point><coordinates>21.149181,51.414877</coordinates></Point></Placemark>
<Placemark><styleUrl>#PinX</styleUrl><name>WĘGRZECKA Maria Agnieszka PSL</name><description>Rzeczniów PSL Radom</description><Point><coordinates>21.393584,51.121398</coordinates></Point></Placemark>
<Placemark><styleUrl>#PinX</styleUrl><name>GĄSIOROWSKA Barbara Elżbieta BEZP</name><description>Nowe Miasto nad Pilicą PSL Radom</description><Point><coordinates>20.524249,51.630670</coordinates></Point></Placemark>
<Placemark><styleUrl>#PinX</styleUrl><name>SINIARSKA Karolina Zofia BEZP</name><description>Przytyk PSL Radom</description><Point><coordinates>20.873356,51.461854</coordinates></Point></Placemark>
<Placemark><styleUrl>#PinX</styleUrl><name>REJCZAK Krzysztof Leszek PSL</name><description>Chlewiska PSL Radom</description><Point><coordinates>20.731680,51.236475</coordinates></Point></Placemark>
<Placemark><styleUrl>#PinX</styleUrl><name>GUMOWSKI Ireneusz PSL</name><description>Radzanów PSL Radom</description><Point><coordinates>20.841231,51.563506</coordinates></Point></Placemark>
<Placemark><styleUrl>#PinX</styleUrl><name>GOŁĄBEK Zbigniew PSL</name><description>Radom (a) PSL Radom</description><Point><coordinates>21.154413,51.414195</coordinates></Point></Placemark>
<Placemark><styleUrl>#PinX</styleUrl><name>SAWICKI Marek Wacław PSL</name><description>Repki PSL Siedlce</description><Point><coordinates>22.433121,52.372969</coordinates></Point></Placemark>
<Placemark><styleUrl>#PinX</styleUrl><name>BORKOWSKI Krzysztof Wawrzyniec PSL</name><description>Wiśniew PSL Siedlce</description><Point><coordinates>22.293448,52.061146</coordinates></Point></Placemark>
<Placemark><styleUrl>#PinX</styleUrl><name>JÓŹWIAK Beata PSL</name><description>Pułtusk PSL Siedlce</description><Point><coordinates>21.083904,52.730554</coordinates></Point></Placemark>
<Placemark><styleUrl>#PinX</styleUrl><name>KOWALCZYK Rafał Józef PSL</name><description>Wąsewo PSL Siedlce</description><Point><coordinates>21.699394,52.844054</coordinates></Point></Placemark>
<Placemark><styleUrl>#PinX</styleUrl><name>STOPA Dariusz Zbigniew PSL</name><description>Siedlce PSL Siedlce</description><Point><coordinates>22.287119,52.174787</coordinates></Point></Placemark>
<Placemark><styleUrl>#PinX</styleUrl><name>NATKOWSKI Paweł Rafał BEZP</name><description>Płock PSL Siedlce</description><Point><coordinates>19.708086,52.533162</coordinates></Point></Placemark>
<Placemark><styleUrl>#PinX</styleUrl><name>KRUPIŃSKI Marian PSL</name><description>Goworowo PSL Siedlce</description><Point><coordinates>21.553491,52.896575</coordinates></Point></Placemark>
<Placemark><styleUrl>#PinX</styleUrl><name>JASTRZĘBSKI Stanisław PSL</name><description>Wyszków PSL Siedlce</description><Point><coordinates>21.467037,52.587746</coordinates></Point></Placemark>
<Placemark><styleUrl>#PinX</styleUrl><name>CHCIAŁOWSKI Marek PSL</name><description>Garwolin PSL Siedlce</description><Point><coordinates>21.552980,51.890455</coordinates></Point></Placemark>
<Placemark><styleUrl>#PinX</styleUrl><name>BODIO Bartłomiej Jarosław PSL</name><description>Rząśnik PSL Siedlce</description><Point><coordinates>21.388179,52.709047</coordinates></Point></Placemark>
<Placemark><styleUrl>#PinX</styleUrl><name>TARKOWSKA Anna PSL</name><description>Łosice PSL Siedlce</description><Point><coordinates>22.735153,52.214599</coordinates></Point></Placemark>
<Placemark><styleUrl>#PinX</styleUrl><name>CZYŻ Dorota BEZP</name><description>Ostrołęka PSL Siedlce</description><Point><coordinates>21.593464,53.071354</coordinates></Point></Placemark>
<Placemark><styleUrl>#PinX</styleUrl><name>KOZERA Mariusz PSL</name><description>Mińsk Mazowiecki PSL Siedlce</description><Point><coordinates>21.582292,52.171544</coordinates></Point></Placemark>
<Placemark><styleUrl>#PinX</styleUrl><name>ZEMBROWSKA Justyna BEZP</name><description>Siedlce PSL Siedlce</description><Point><coordinates>22.267440,52.169922</coordinates></Point></Placemark>
<Placemark><styleUrl>#PinX</styleUrl><name>SOPEL-SEREJA Lidia BEZP</name><description>Łaskarzew PSL Siedlce</description><Point><coordinates>21.607297,51.786327</coordinates></Point></Placemark>
<Placemark><styleUrl>#PinX</styleUrl><name>NALEWKA Kamil PSL</name><description>Mińsk Mazowiecki PSL Siedlce</description><Point><coordinates>21.551720,52.184525</coordinates></Point></Placemark>
<Placemark><styleUrl>#PinX</styleUrl><name>ZAWISTOWSKI Marcin BEZP</name><description>Małkinia Górna PSL Siedlce</description><Point><coordinates>22.021671,52.700246</coordinates></Point></Placemark>
<Placemark><styleUrl>#PinX</styleUrl><name>SZURNICKA Ewa PSL</name><description>Kadzidło PSL Siedlce</description><Point><coordinates>21.472383,53.249279</coordinates></Point></Placemark>
<Placemark><styleUrl>#PinX</styleUrl><name>KACZYŃSKA Beata Marta BEZP</name><description>Kadzidło PSL Siedlce</description><Point><coordinates>21.462575,53.248062</coordinates></Point></Placemark>
<Placemark><styleUrl>#PinX</styleUrl><name>KANIA Krystian BEZP</name><description>Żelechów PSL Siedlce</description><Point><coordinates>21.860461,51.802170</coordinates></Point></Placemark>
<Placemark><styleUrl>#PinX</styleUrl><name>SAŁATA Magdalena Maria BEZP</name><description>Siedlce PSL Siedlce</description><Point><coordinates>22.270920,52.154859</coordinates></Point></Placemark>
<Placemark><styleUrl>#PinX</styleUrl><name>KOŁODZIEJSKI Cezary PSL</name><description>Maków Mazowiecki PSL Siedlce</description><Point><coordinates>21.095744,52.864651</coordinates></Point></Placemark>
<Placemark><styleUrl>#PinX</styleUrl><name>KELLEHER Hanna Bożenna BEZP</name><description>Wierzbno PSL Siedlce</description><Point><coordinates>21.851329,52.312257</coordinates></Point></Placemark>
<Placemark><styleUrl>#PinX</styleUrl><name>POSTEK Michał BEZP</name><description>Łochów PSL Siedlce</description><Point><coordinates>21.710728,52.554418</coordinates></Point></Placemark>
<Placemark><styleUrl>#PinX</styleUrl><name>BARTOSZEWSKI Władysław Teofil BEZP</name><description>Dąbrówka PSL Warszawa</description><Point><coordinates>21.270250,52.489996</coordinates></Point></Placemark>
<Placemark><styleUrl>#PinX</styleUrl><name>OJER Anna Małgorzata BEZP</name><description>Mst Warszawa (a) PSL Warszawa</description><Point><coordinates>21.075916,52.224473</coordinates></Point></Placemark>
<Placemark><styleUrl>#PinX</styleUrl><name>STANISZKIS Joanna Maria BEZP</name><description>Mst Warszawa (a) PSL Warszawa</description><Point><coordinates>21.031588,52.267166</coordinates></Point></Placemark>
<Placemark><styleUrl>#PinX</styleUrl><name>STELMAŃSKA Izabela PSL</name><description>Mst Warszawa (a) PSL Warszawa</description><Point><coordinates>21.070632,52.209481</coordinates></Point></Placemark>
<Placemark><styleUrl>#PinX</styleUrl><name>HELWING Stanisław Piotr BEZP</name><description>Konstancin-Jeziorna PSL Warszawa</description><Point><coordinates>21.127420,52.083597</coordinates></Point></Placemark>
<Placemark><styleUrl>#PinX</styleUrl><name>WĄSOWICZ Michał Janusz BEZP</name><description>Mst Warszawa (a) PSL Warszawa</description><Point><coordinates>21.074890,52.221525</coordinates></Point></Placemark>
<Placemark><styleUrl>#PinX</styleUrl><name>RAKIEL-CZARNECKA Walentyna PSL</name><description>Mst Warszawa (a) PSL Warszawa</description><Point><coordinates>21.106977,52.212519</coordinates></Point></Placemark>
<Placemark><styleUrl>#PinX</styleUrl><name>FLIS-KUCZYŃSKA Halina członek partii politycznej: Unia Europejskich Demokratów</name><description>Mst Warszawa (a) PSL Warszawa</description><Point><coordinates>21.067344,52.200182</coordinates></Point></Placemark>
<Placemark><styleUrl>#PinX</styleUrl><name>ZAWŁOCKI Juliusz Jakub BEZP</name><description>Mst Warszawa (a) PSL Warszawa</description><Point><coordinates>21.113979,52.240809</coordinates></Point></Placemark>
<Placemark><styleUrl>#PinX</styleUrl><name>SAWICKI Emil Krzysztof PSL</name><description>Raszyn PSL Warszawa</description><Point><coordinates>20.919799,52.132470</coordinates></Point></Placemark>
<Placemark><styleUrl>#PinX</styleUrl><name>STRĄK Michał Stanisław PSL</name><description>Mst Warszawa (a) PSL Warszawa</description><Point><coordinates>21.066263,52.186324</coordinates></Point></Placemark>
<Placemark><styleUrl>#PinX</styleUrl><name>BOGIEL Teresa Maria PSL</name><description>Mst Warszawa (a) PSL Warszawa</description><Point><coordinates>21.076467,52.232425</coordinates></Point></Placemark>
<Placemark><styleUrl>#PinX</styleUrl><name>MASŁOWSKI Wiktor Zbigniew BEZP</name><description>Mst Warszawa (a) PSL Warszawa</description><Point><coordinates>21.110255,52.251770</coordinates></Point></Placemark>
<Placemark><styleUrl>#PinX</styleUrl><name>ŁUKASIEWICZ Adam Krzysztof BEZP</name><description>Mst Warszawa (a) PSL Warszawa</description><Point><coordinates>21.074549,52.261560</coordinates></Point></Placemark>
<Placemark><styleUrl>#PinX</styleUrl><name>WASILEWSKA Lucyna Gertruda PSL</name><description>Mst Warszawa (a) PSL Warszawa</description><Point><coordinates>21.077990,52.277642</coordinates></Point></Placemark>
<Placemark><styleUrl>#PinX</styleUrl><name>PŁOWICZ Marcin Tomasz BEZP</name><description>Mst Warszawa (a) PSL Warszawa</description><Point><coordinates>21.079013,52.201913</coordinates></Point></Placemark>
<Placemark><styleUrl>#PinX</styleUrl><name>BIELSKI Karol Tomasz PSL</name><description>Mst Warszawa (a) PSL Warszawa</description><Point><coordinates>21.050940,52.191163</coordinates></Point></Placemark>
<Placemark><styleUrl>#PinX</styleUrl><name>DYDUCH Janusz PSL</name><description>Mst Warszawa (a) PSL Warszawa</description><Point><coordinates>21.043078,52.265328</coordinates></Point></Placemark>
<Placemark><styleUrl>#PinX</styleUrl><name>GARSTKA Tatiana Joanna BEZP</name><description>Mst Warszawa (a) PSL Warszawa</description><Point><coordinates>21.086121,52.204933</coordinates></Point></Placemark>
<Placemark><styleUrl>#PinX</styleUrl><name>ŁAZARSKI Roman członek partii politycznej: Unia Europejskich Demokratów</name><description>Mst Warszawa (a) PSL Warszawa</description><Point><coordinates>21.018047,52.251392</coordinates></Point></Placemark>
<Placemark><styleUrl>#PinX</styleUrl><name>PANAS Anna Józefa PSL</name><description>Mst Warszawa (a) PSL Warszawa</description><Point><coordinates>21.017595,52.242360</coordinates></Point></Placemark>
<Placemark><styleUrl>#PinX</styleUrl><name>WYSZYŃSKA Teresa Maria PSL</name><description>Mst Warszawa (a) PSL Warszawa</description><Point><coordinates>21.038413,52.224050</coordinates></Point></Placemark>
<Placemark><styleUrl>#PinX</styleUrl><name>GRUDOWSKA Agata Zofia PSL</name><description>Mst Warszawa (a) PSL Warszawa</description><Point><coordinates>21.088441,52.229601</coordinates></Point></Placemark>
<Placemark><styleUrl>#PinX</styleUrl><name>RUTKOWSKA Mirosława PSL</name><description>Mst Warszawa (a) PSL Warszawa</description><Point><coordinates>21.050006,52.283081</coordinates></Point></Placemark>
<Placemark><styleUrl>#PinX</styleUrl><name>MARECKI Marek Antoni BEZP</name><description>Mst Warszawa (a) PSL Warszawa</description><Point><coordinates>21.012249,52.219409</coordinates></Point></Placemark>
<Placemark><styleUrl>#PinX</styleUrl><name>MAZUREK Aleksander Paweł BEZP</name><description>Mst Warszawa (a) PSL Warszawa</description><Point><coordinates>21.084570,52.193671</coordinates></Point></Placemark>
<Placemark><styleUrl>#PinX</styleUrl><name>OWCZARSKI Piotr Krzysztof BEZP</name><description>Mst Warszawa (a) PSL Warszawa</description><Point><coordinates>21.021078,52.204664</coordinates></Point></Placemark>
<Placemark><styleUrl>#PinX</styleUrl><name>KOZUBEK Elżbieta Barbara PSL</name><description>Mst Warszawa (a) PSL Warszawa</description><Point><coordinates>21.012410,52.213462</coordinates></Point></Placemark>
<Placemark><styleUrl>#PinX</styleUrl><name>MISIEJKO Karolina PSL</name><description>Mst Warszawa (a) PSL Warszawa</description><Point><coordinates>21.056756,52.210890</coordinates></Point></Placemark>
<Placemark><styleUrl>#PinX</styleUrl><name>PASTEWKA Małgorzata Halina BEZP</name><description>Mst Warszawa (a) PSL Warszawa</description><Point><coordinates>21.061895,52.209518</coordinates></Point></Placemark>
<Placemark><styleUrl>#PinX</styleUrl><name>NOWOSIELSKI Kamil Ernest PSL</name><description>Mst Warszawa (a) PSL Warszawa</description><Point><coordinates>21.016814,52.229864</coordinates></Point></Placemark>
<Placemark><styleUrl>#PinX</styleUrl><name>WIECZOREK Katarzyna Agata PSL</name><description>Sanniki PSL Warszawa</description><Point><coordinates>19.863047,52.333933</coordinates></Point></Placemark>
<Placemark><styleUrl>#PinX</styleUrl><name>GOŁOTA Bożenna Jolanta PSL</name><description>Mst Warszawa (a) PSL Warszawa</description><Point><coordinates>21.049609,52.252123</coordinates></Point></Placemark>
<Placemark><styleUrl>#PinX</styleUrl><name>CZAPLICKI Zbigniew PSL</name><description>Mst Warszawa (a) PSL Warszawa</description><Point><coordinates>21.063777,52.254181</coordinates></Point></Placemark>
<Placemark><styleUrl>#PinX</styleUrl><name>WRÓBLEWSKI Andrzej Wojciech członek partii politycznej: Unia Europejskich Demokratów</name><description>Mst Warszawa (a) PSL Warszawa</description><Point><coordinates>21.048124,52.240888</coordinates></Point></Placemark>
<Placemark><styleUrl>#PinX</styleUrl><name>MAZUREK Jerzy BEZP</name><description>Mst Warszawa (a) PSL Warszawa</description><Point><coordinates>21.060592,52.216466</coordinates></Point></Placemark>
<Placemark><styleUrl>#PinX</styleUrl><name>CHOIŃSKA Alicja Elżbieta członek partii politycznej: Unia Europejskich Demokratów</name><description>Mst Warszawa (a) PSL Warszawa</description><Point><coordinates>21.027211,52.251154</coordinates></Point></Placemark>
<Placemark><styleUrl>#PinX</styleUrl><name>SZYMANEK Piotr Ludomir BEZP</name><description>Mst Warszawa (a) PSL Warszawa</description><Point><coordinates>21.068686,52.225077</coordinates></Point></Placemark>
<Placemark><styleUrl>#PinX</styleUrl><name>TYSZCZUK Sebastian Adrian BEZP</name><description>Mst Warszawa (a) PSL Warszawa</description><Point><coordinates>21.054611,52.265312</coordinates></Point></Placemark>
<Placemark><styleUrl>#PinX</styleUrl><name>MORDAK Robert Dariusz BEZP</name><description>Radom (a) PSL Warszawa</description><Point><coordinates>21.143973,51.429124</coordinates></Point></Placemark>
<Placemark><styleUrl>#PinX</styleUrl><name>ŻELAZOWSKA Bożena Jadwiga PSL</name><description>Józefów PSL Warszawa</description><Point><coordinates>21.219433,52.128131</coordinates></Point></Placemark>
<Placemark><styleUrl>#PinX</styleUrl><name>STEFANIAK Jakub Łukasz PSL</name><description>Mst Warszawa (a) PSL Warszawa</description><Point><coordinates>21.058193,52.216811</coordinates></Point></Placemark>
<Placemark><styleUrl>#PinX</styleUrl><name>PETELICKA Agnieszka Beata BEZP</name><description>Mst Warszawa (a) PSL Warszawa</description><Point><coordinates>21.058927,52.182692</coordinates></Point></Placemark>
<Placemark><styleUrl>#PinX</styleUrl><name>ŚWIERCZ Artur Mateusz BEZP</name><description>Pruszków PSL Warszawa</description><Point><coordinates>20.805374,52.172854</coordinates></Point></Placemark>
<Placemark><styleUrl>#PinX</styleUrl><name>BIERNACKA Magdalena PSL</name><description>Nasielsk PSL Warszawa</description><Point><coordinates>20.765928,52.574419</coordinates></Point></Placemark>
<Placemark><styleUrl>#PinX</styleUrl><name>OLEKSIAK Emilia PSL</name><description>Tłuszcz PSL Warszawa</description><Point><coordinates>21.465581,52.413811</coordinates></Point></Placemark>
<Placemark><styleUrl>#PinX</styleUrl><name>GRAJDA Dariusz Grzegorz PSL</name><description>Celestynów PSL Warszawa</description><Point><coordinates>21.399125,52.043231</coordinates></Point></Placemark>
<Placemark><styleUrl>#PinX</styleUrl><name>GALIŃSKI Piotr Stanisław PSL</name><description>Grodzisk Mazowiecki PSL Warszawa</description><Point><coordinates>20.615445,52.099790</coordinates></Point></Placemark>
<Placemark><styleUrl>#PinX</styleUrl><name>MAŁOLEPSZY Karol Andrzej PSL</name><description>Wołomin PSL Warszawa</description><Point><coordinates>21.272479,52.352006</coordinates></Point></Placemark>
<Placemark><styleUrl>#PinX</styleUrl><name>POZOREK Artur PSL</name><description>Jabłonna PSL Warszawa</description><Point><coordinates>20.872210,52.390930</coordinates></Point></Placemark>
<Placemark><styleUrl>#PinX</styleUrl><name>BUSZTA Krystian Stanisław BEZP</name><description>Leoncin PSL Warszawa</description><Point><coordinates>20.516021,52.355512</coordinates></Point></Placemark>
<Placemark><styleUrl>#PinX</styleUrl><name>SUDOMIRSKI Marek Szczepan BEZP</name><description>Radzymin PSL Warszawa</description><Point><coordinates>21.172997,52.431270</coordinates></Point></Placemark>
<Placemark><styleUrl>#PinX</styleUrl><name>SZYNKIEWICZ Ewa PSL</name><description>Góra Kalwaria PSL Warszawa</description><Point><coordinates>21.178709,51.973879</coordinates></Point></Placemark>
<Placemark><styleUrl>#PinX</styleUrl><name>LITWIŃCZUK Zdzisław Czesław członek partii politycznej: Unia Europejskich Demokratów</name><description>Mst Warszawa (a) PSL Warszawa</description><Point><coordinates>21.073445,52.285241</coordinates></Point></Placemark>
<Placemark><styleUrl>#PinX</styleUrl><name>NASIADKA Ilona PSL</name><description>Mst Warszawa (a) PSL Warszawa</description><Point><coordinates>21.079253,52.201038</coordinates></Point></Placemark>
<Placemark><styleUrl>#PinX</styleUrl><name>CIEPIELEWSKA Joanna Katarzyna BEZP</name><description>Wołomin PSL Warszawa</description><Point><coordinates>21.269411,52.357881</coordinates></Point></Placemark>
<Placemark><styleUrl>#PinX</styleUrl><name>DOMINIAK Michał Adam BEZP</name><description>Leszno PSL Warszawa</description><Point><coordinates>20.606674,52.281284</coordinates></Point></Placemark>
<Placemark><styleUrl>#PinX</styleUrl><name>ŁUKASIŃSKA Maryla Barbara BEZP</name><description>Izabelin PSL Warszawa</description><Point><coordinates>20.780248,52.316466</coordinates></Point></Placemark>
<Placemark><styleUrl>#PinX</styleUrl><name>OKUROWSKA Małgorzata BEZP</name><description>Grodzisk Mazowiecki PSL Warszawa</description><Point><coordinates>20.621475,52.093756</coordinates></Point></Placemark>
<Placemark><styleUrl>#PinX</styleUrl><name>SOSIN Daniel Krzysztof BEZP</name><description>Mst Warszawa (a) PSL Warszawa</description><Point><coordinates>21.085138,52.234786</coordinates></Point></Placemark>
<Placemark><styleUrl>#PinX</styleUrl><name>PIEKUT Damian Marek PSL</name><description>Legionowo PSL Warszawa</description><Point><coordinates>20.945110,52.405896</coordinates></Point></Placemark>
<Placemark><styleUrl>#PinX</styleUrl><name>RYŚ-FERENS Erwina Lilia PSL</name><description>Mst Warszawa (a) PSL Warszawa</description><Point><coordinates>21.023529,52.263389</coordinates></Point></Placemark>
<Placemark><styleUrl>#PinX</styleUrl><name>BORKOWSKI Łukasz Jan BEZP</name><description>Nadarzyn PSL Warszawa</description><Point><coordinates>20.799005,52.066879</coordinates></Point></Placemark>
<Placemark><styleUrl>#PinX</styleUrl><name>KUKIZ Paweł Piotr BEZP</name><description>Lewin Brzeski PSL Opole</description><Point><coordinates>17.640626,50.755420</coordinates></Point></Placemark>
<Placemark><styleUrl>#PinX</styleUrl><name>RAKOCZY Stanisław PSL</name><description>Kluczbork PSL Opole</description><Point><coordinates>18.224300,50.978616</coordinates></Point></Placemark>
<Placemark><styleUrl>#PinX</styleUrl><name>GRABOWSKI Paweł BEZP</name><description>Brzeg PSL Opole</description><Point><coordinates>17.464247,50.858929</coordinates></Point></Placemark>
<Placemark><styleUrl>#PinX</styleUrl><name>KONOPKA Antoni Jacek PSL</name><description>Nysa PSL Opole</description><Point><coordinates>17.346669,50.453053</coordinates></Point></Placemark>
<Placemark><styleUrl>#PinX</styleUrl><name>POŚPIECH Piotr PSL</name><description>Kluczbork PSL Opole</description><Point><coordinates>18.216383,50.981496</coordinates></Point></Placemark>
<Placemark><styleUrl>#PinX</styleUrl><name>OSZAŃCA Marcin Krzysztof PSL</name><description>Tułowice PSL Opole</description><Point><coordinates>17.690853,50.594457</coordinates></Point></Placemark>
<Placemark><styleUrl>#PinX</styleUrl><name>ZAGOLA Agnieszka Izabela PSL</name><description>Opole PSL Opole</description><Point><coordinates>17.912576,50.662077</coordinates></Point></Placemark>
<Placemark><styleUrl>#PinX</styleUrl><name>JAGIEŁŁO Wojciech Jan BEZP</name><description>Opole PSL Opole</description><Point><coordinates>17.905336,50.685298</coordinates></Point></Placemark>
<Placemark><styleUrl>#PinX</styleUrl><name>GŁOWACKI Kazimierz PSL</name><description>Kietrz PSL Opole</description><Point><coordinates>17.950332,50.058841</coordinates></Point></Placemark>
<Placemark><styleUrl>#PinX</styleUrl><name>WICIAK Tomasz Paweł PSL</name><description>Namysłów PSL Opole</description><Point><coordinates>17.700057,51.082285</coordinates></Point></Placemark>
<Placemark><styleUrl>#PinX</styleUrl><name>ZAJĄC Barbara PSL</name><description>Pokój PSL Opole</description><Point><coordinates>17.873902,50.915766</coordinates></Point></Placemark>
<Placemark><styleUrl>#PinX</styleUrl><name>KRZESIŃSKI Jan PSL</name><description>Niemodlin PSL Opole</description><Point><coordinates>17.592615,50.656149</coordinates></Point></Placemark>
<Placemark><styleUrl>#PinX</styleUrl><name>MALIK-MENDELSKA Katarzyna Agnieszka BEZP</name><description>Głubczyce PSL Opole</description><Point><coordinates>17.763920,50.212863</coordinates></Point></Placemark>
<Placemark><styleUrl>#PinX</styleUrl><name>MARKIEWICZ Jolanta BEZP</name><description>Lubsza PSL Opole</description><Point><coordinates>17.558859,50.923335</coordinates></Point></Placemark>
<Placemark><styleUrl>#PinX</styleUrl><name>KAŁWAK Leszek PSL</name><description>Praszka PSL Opole</description><Point><coordinates>18.488003,51.073701</coordinates></Point></Placemark>
<Placemark><styleUrl>#PinX</styleUrl><name>KUPNY Danuta Teresa BEZP</name><description>Leśnica PSL Opole</description><Point><coordinates>18.213957,50.430257</coordinates></Point></Placemark>
<Placemark><styleUrl>#PinX</styleUrl><name>ZAWIŚLAK Alicja BEZP</name><description>Prudnik PSL Opole</description><Point><coordinates>17.527779,50.348730</coordinates></Point></Placemark>
<Placemark><styleUrl>#PinX</styleUrl><name>GAJDA Ryszard Jan PSL</name><description>Ozimek PSL Opole</description><Point><coordinates>18.223844,50.691205</coordinates></Point></Placemark>
<Placemark><styleUrl>#PinX</styleUrl><name>LEWIŃSKA Bożena Zofia PSL</name><description>Łambinowice PSL Opole</description><Point><coordinates>17.546961,50.536889</coordinates></Point></Placemark>
<Placemark><styleUrl>#PinX</styleUrl><name>KROK Miłosz Stanisław BEZP</name><description>Grodków PSL Opole</description><Point><coordinates>17.359319,50.687883</coordinates></Point></Placemark>
<Placemark><styleUrl>#PinX</styleUrl><name>WIECZOREK-GRINER Agnieszka Danuta BEZP</name><description>Polska Cerekiew PSL Opole</description><Point><coordinates>18.116722,50.217165</coordinates></Point></Placemark>
<Placemark><styleUrl>#PinX</styleUrl><name>ŚMIGIELSKA Maria Ewa BEZP</name><description>Dąbrowa PSL Opole</description><Point><coordinates>17.768119,50.705364</coordinates></Point></Placemark>
<Placemark><styleUrl>#PinX</styleUrl><name>HANKUS Mirosław PSL</name><description>Zdzieszowice PSL Opole</description><Point><coordinates>18.088389,50.431853</coordinates></Point></Placemark>
<Placemark><styleUrl>#PinX</styleUrl><name>SAWICKI Grzegorz Adam PSL</name><description>Chrząstowice PSL Opole</description><Point><coordinates>18.089120,50.655040</coordinates></Point></Placemark>
<Placemark><styleUrl>#PinX</styleUrl><name>KASPRZAK Mieczysław PSL</name><description>Radymno (c) PSL Krosno</description><Point><coordinates>22.948910,49.946572</coordinates></Point></Placemark>
<Placemark><styleUrl>#PinX</styleUrl><name>MERCIK Aleksander BEZP</name><description>Miejsce Piastowe PSL Krosno</description><Point><coordinates>21.787148,49.635766</coordinates></Point></Placemark>
<Placemark><styleUrl>#PinX</styleUrl><name>ZADWORNY Zdzisław PSL</name><description>Cieszanów PSL Krosno</description><Point><coordinates>23.159438,50.266390</coordinates></Point></Placemark>
<Placemark><styleUrl>#PinX</styleUrl><name>DACHNOWICZ Małgorzata Krystyna BEZP</name><description>Dubiecko PSL Krosno</description><Point><coordinates>22.384044,49.812142</coordinates></Point></Placemark>
<Placemark><styleUrl>#PinX</styleUrl><name>HOŁYSZKO Janusz Marek PSL</name><description>Orły PSL Krosno</description><Point><coordinates>22.802571,49.879327</coordinates></Point></Placemark>
<Placemark><styleUrl>#PinX</styleUrl><name>KISZKA Zbigniew Wojciech PSL</name><description>Przeworsk PSL Krosno</description><Point><coordinates>22.485532,50.057594</coordinates></Point></Placemark>
<Placemark><styleUrl>#PinX</styleUrl><name>BOJKO Zbigniew Andrzej PSL</name><description>Przemyśl PSL Krosno</description><Point><coordinates>22.729575,49.768455</coordinates></Point></Placemark>
<Placemark><styleUrl>#PinX</styleUrl><name>MAŁECKA Barbara Danuta BEZP</name><description>Stary Dzików PSL Krosno</description><Point><coordinates>22.916545,50.226224</coordinates></Point></Placemark>
<Placemark><styleUrl>#PinX</styleUrl><name>KONOPKA Marek Zbigniew BEZP</name><description>Ustrzyki Dolne PSL Krosno</description><Point><coordinates>22.575921,49.500104</coordinates></Point></Placemark>
<Placemark><styleUrl>#PinX</styleUrl><name>SAWIŃSKI Krzysztof Jan PSL</name><description>Lesko PSL Krosno</description><Point><coordinates>22.344954,49.461621</coordinates></Point></Placemark>