<?xml version='1.0' encoding='UTF-8'?>
<kml xmlns='http://www.opengis.net/kml/2.2' xmlns:gx='http://www.google.com/kml/ext/2.2'>
<Document>
<name>kml</name>
<description>tomasz przechlewski, http://pinkaccordions.homelinux.org. Some rights reserved (CC BY 2.0)</description>
<Style id='PinX'><IconStyle><Icon><href>http://maps.google.com/mapfiles/kml/pal4/icon57.png</href></Icon></IconStyle></Style>
<Style id='XLine'><LineStyle><color>ffb18ff4</color><width>4</width></LineStyle></Style>
<Placemark><styleUrl>#PinX</styleUrl><name>SEKUŁA-SZMAJDZIŃSKA Małgorzata Helena SLD</name><description>Mst Warszawa (a) SLD Legnica</description><Point><coordinates>21.013338,52.230915</coordinates></Point></Placemark>
<Placemark><styleUrl>#PinX</styleUrl><name>OBAZ Robert Marcin Wiosna</name><description>Jelenia Góra (a) SLD Legnica</description><Point><coordinates>15.726860,50.862284</coordinates></Point></Placemark>
<Placemark><styleUrl>#PinX</styleUrl><name>FILACZYŃSKA Kaja LRazem</name><description>Legnica SLD Legnica</description><Point><coordinates>16.153643,51.205821</coordinates></Point></Placemark>
<Placemark><styleUrl>#PinX</styleUrl><name>ZBRZYZNY Ryszard SLD</name><description>Lubin SLD Legnica</description><Point><coordinates>16.178987,51.364453</coordinates></Point></Placemark>
<Placemark><styleUrl>#PinX</styleUrl><name>PIĄTEK Damian SLD</name><description>Głogów SLD Legnica</description><Point><coordinates>16.049335,51.668871</coordinates></Point></Placemark>
<Placemark><styleUrl>#PinX</styleUrl><name>BURAKOWSKA Krystyna Anna LRazem</name><description>Legnica SLD Legnica</description><Point><coordinates>16.150198,51.208907</coordinates></Point></Placemark>
<Placemark><styleUrl>#PinX</styleUrl><name>PACZÓSKI Piotr Jerzy SLD</name><description>Jelenia Góra (a) SLD Legnica</description><Point><coordinates>15.721048,50.844173</coordinates></Point></Placemark>
<Placemark><styleUrl>#PinX</styleUrl><name>ORZECHOWSKA Joanna Magdalena Wiosna</name><description>Legnica SLD Legnica</description><Point><coordinates>16.163581,51.198143</coordinates></Point></Placemark>
<Placemark><styleUrl>#PinX</styleUrl><name>GRYĆ Paweł LRazem</name><description>Jelenia Góra (a) SLD Legnica</description><Point><coordinates>15.717916,50.843333</coordinates></Point></Placemark>
<Placemark><styleUrl>#PinX</styleUrl><name>MIARA Rafał SLD</name><description>Złotoryja SLD Legnica</description><Point><coordinates>15.921149,51.122320</coordinates></Point></Placemark>
<Placemark><styleUrl>#PinX</styleUrl><name>JANKOWSKA Magdalena Wiosna</name><description>Chocianów SLD Legnica</description><Point><coordinates>15.960576,51.415576</coordinates></Point></Placemark>
<Placemark><styleUrl>#PinX</styleUrl><name>KRÓLEWIECKA-WALA Dominika LRazem</name><description>Legnica SLD Legnica</description><Point><coordinates>16.155015,51.212964</coordinates></Point></Placemark>
<Placemark><styleUrl>#PinX</styleUrl><name>MAJEWICZ Przemysław Mikołaj Wiosna</name><description>Polkowice SLD Legnica</description><Point><coordinates>16.080749,51.494608</coordinates></Point></Placemark>
<Placemark><styleUrl>#PinX</styleUrl><name>BIDNYK Mikołaj Adam BEZP</name><description>Chojnów SLD Legnica</description><Point><coordinates>15.910110,51.294546</coordinates></Point></Placemark>
<Placemark><styleUrl>#PinX</styleUrl><name>KOHLMAN Piotr Rafał BEZP</name><description>Głogów SLD Legnica</description><Point><coordinates>16.044203,51.660358</coordinates></Point></Placemark>
<Placemark><styleUrl>#PinX</styleUrl><name>GŁUSZKO Rafał Krzysztof BEZP</name><description>Gromadka SLD Legnica</description><Point><coordinates>15.737169,51.398113</coordinates></Point></Placemark>
<Placemark><styleUrl>#PinX</styleUrl><name>BACZMAŃSKI Paweł Adam BEZP</name><description>Bolków SLD Legnica</description><Point><coordinates>16.062774,50.922824</coordinates></Point></Placemark>
<Placemark><styleUrl>#PinX</styleUrl><name>PŁANETA-SIEWIERSKA Edyta Katarzyna BEZP</name><description>Mst Warszawa (a) SLD Legnica</description><Point><coordinates>21.106178,52.255487</coordinates></Point></Placemark>
<Placemark><styleUrl>#PinX</styleUrl><name>GRZYB Leszek Kazimierz SLD</name><description>Zgorzelec SLD Legnica</description><Point><coordinates>15.016405,51.158668</coordinates></Point></Placemark>
<Placemark><styleUrl>#PinX</styleUrl><name>RAKSZEWSKA Alicja BEZP</name><description>Lubin (a) SLD Legnica</description><Point><coordinates>16.201290,51.391157</coordinates></Point></Placemark>
<Placemark><styleUrl>#PinX</styleUrl><name>JÓŹWIK Magdalena BEZP</name><description>Legnica SLD Legnica</description><Point><coordinates>16.159342,51.206324</coordinates></Point></Placemark>
<Placemark><styleUrl>#PinX</styleUrl><name>BRYCZKOWSKA Inez Jolanta BEZP</name><description>Głogów SLD Legnica</description><Point><coordinates>16.048835,51.663808</coordinates></Point></Placemark>
<Placemark><styleUrl>#PinX</styleUrl><name>KOKO Daniel Radosław SLD</name><description>Gryfów Śląski SLD Legnica</description><Point><coordinates>15.438929,51.040596</coordinates></Point></Placemark>
<Placemark><styleUrl>#PinX</styleUrl><name>GADEK Sławomir Adam LRazem</name><description>Jerzmanowa SLD Legnica</description><Point><coordinates>16.037863,51.593708</coordinates></Point></Placemark>
<Placemark><styleUrl>#PinX</styleUrl><name>DYDUCH Marek SLD</name><description>Wrocław (a) SLD Wałbrzych</description><Point><coordinates>16.983893,51.108688</coordinates></Point></Placemark>
<Placemark><styleUrl>#PinX</styleUrl><name>KOTARBA Mariusz Wiosna</name><description>Wałbrzych SLD Wałbrzych</description><Point><coordinates>16.287936,50.784012</coordinates></Point></Placemark>
<Placemark><styleUrl>#PinX</styleUrl><name>LECH Kornelia Joanna SLD</name><description>Świdnica SLD Wałbrzych</description><Point><coordinates>16.493497,50.843547</coordinates></Point></Placemark>
<Placemark><styleUrl>#PinX</styleUrl><name>ŁĄCKI Adam Edward SLD</name><description>Kłodzko SLD Wałbrzych</description><Point><coordinates>16.648461,50.436035</coordinates></Point></Placemark>
<Placemark><styleUrl>#PinX</styleUrl><name>MUSIAŁEK Małgorzata Aleksandra BEZP</name><description>Nowa Ruda SLD Wałbrzych</description><Point><coordinates>16.506204,50.591822</coordinates></Point></Placemark>
<Placemark><styleUrl>#PinX</styleUrl><name>ZALEŃSKI Wiktor Piotr BEZP</name><description>Żarów SLD Wałbrzych</description><Point><coordinates>16.524192,50.946295</coordinates></Point></Placemark>
<Placemark><styleUrl>#PinX</styleUrl><name>CHOJNACKA Cecylia Agnieszka SLD</name><description>Kłodzko SLD Wałbrzych</description><Point><coordinates>16.644209,50.436343</coordinates></Point></Placemark>
<Placemark><styleUrl>#PinX</styleUrl><name>WOLAK Tomasz Paweł Wiosna</name><description>Kamieniec Ząbkowicki SLD Wałbrzych</description><Point><coordinates>16.909253,50.519737</coordinates></Point></Placemark>
<Placemark><styleUrl>#PinX</styleUrl><name>CHUĆ Renata BEZP</name><description>Wałbrzych SLD Wałbrzych</description><Point><coordinates>16.290456,50.782678</coordinates></Point></Placemark>
<Placemark><styleUrl>#PinX</styleUrl><name>SŁABICKA Jolanta Izabela SLD</name><description>Świdnica SLD Wałbrzych</description><Point><coordinates>16.497950,50.839767</coordinates></Point></Placemark>
<Placemark><styleUrl>#PinX</styleUrl><name>HABIERA-GÓRSKA Agnieszka Beata Wiosna</name><description>Dzierżoniów SLD Wałbrzych</description><Point><coordinates>16.650892,50.727582</coordinates></Point></Placemark>
<Placemark><styleUrl>#PinX</styleUrl><name>HÜPNER Dominik LRazem</name><description>Żarów SLD Wałbrzych</description><Point><coordinates>16.524898,50.945411</coordinates></Point></Placemark>
<Placemark><styleUrl>#PinX</styleUrl><name>CZAJKOWSKI Robert Aleksy SLD</name><description>Bielawa SLD Wałbrzych</description><Point><coordinates>16.603915,50.672639</coordinates></Point></Placemark>
<Placemark><styleUrl>#PinX</styleUrl><name>SOŁTYSIK Janusz Tomasz BEZP</name><description>Międzylesie SLD Wałbrzych</description><Point><coordinates>16.694646,50.167530</coordinates></Point></Placemark>
<Placemark><styleUrl>#PinX</styleUrl><name>ZABORONEK Maciej Grzegorz LRazem</name><description>Świebodzice SLD Wałbrzych</description><Point><coordinates>16.337279,50.871446</coordinates></Point></Placemark>
<Placemark><styleUrl>#PinX</styleUrl><name>STABROWSKA Anna Ewa LRazem</name><description>Wałbrzych SLD Wałbrzych</description><Point><coordinates>16.293550,50.775529</coordinates></Point></Placemark>
<Placemark><styleUrl>#PinX</styleUrl><name>ŚMISZEK Krzysztof Jan Wiosna</name><description>Mst Warszawa (a) SLD Wrocław</description><Point><coordinates>21.060280,52.197182</coordinates></Point></Placemark>
<Placemark><styleUrl>#PinX</styleUrl><name>STOŻEK Marta Magdalena LRazem</name><description>Wrocław (a) SLD Wrocław</description><Point><coordinates>16.977962,51.126581</coordinates></Point></Placemark>
<Placemark><styleUrl>#PinX</styleUrl><name>SIKORA Arkadiusz SLD</name><description>Oleśnica SLD Wrocław</description><Point><coordinates>17.382385,51.213380</coordinates></Point></Placemark>
<Placemark><styleUrl>#PinX</styleUrl><name>LUBINIECKA-RÓŻYŁO Katarzyna Elżbieta BEZP</name><description>Wrocław (a) SLD Wrocław</description><Point><coordinates>17.014194,51.126461</coordinates></Point></Placemark>
<Placemark><styleUrl>#PinX</styleUrl><name>AUGUSTYŃSKI Iwo Piotr LRazem</name><description>Wrocław (a) SLD Wrocław</description><Point><coordinates>17.000108,51.108266</coordinates></Point></Placemark>
<Placemark><styleUrl>#PinX</styleUrl><name>JOKS Marlena Ewa SLD</name><description>Wrocław (a) SLD Wrocław</description><Point><coordinates>16.968617,51.108203</coordinates></Point></Placemark>
<Placemark><styleUrl>#PinX</styleUrl><name>KOZDROWICKI Piotr Sebastian Wiosna</name><description>Brzeg Dolny SLD Wrocław</description><Point><coordinates>16.696391,51.297664</coordinates></Point></Placemark>
<Placemark><styleUrl>#PinX</styleUrl><name>ŁAGOWSKA Anna Katarzyna LRazem</name><description>Lubań SLD Wrocław</description><Point><coordinates>15.279640,51.119491</coordinates></Point></Placemark>
<Placemark><styleUrl>#PinX</styleUrl><name>ELSNER Wincenty Aleksander SLD</name><description>Wrocław (a) SLD Wrocław</description><Point><coordinates>16.962813,51.126975</coordinates></Point></Placemark>
<Placemark><styleUrl>#PinX</styleUrl><name>PILNY Maciej Wiosna</name><description>Wrocław (a) SLD Wrocław</description><Point><coordinates>17.003044,51.103089</coordinates></Point></Placemark>
<Placemark><styleUrl>#PinX</styleUrl><name>GAJDZIŃSKA Anna LRazem</name><description>Wrocław (a) SLD Wrocław</description><Point><coordinates>17.019346,51.119238</coordinates></Point></Placemark>
<Placemark><styleUrl>#PinX</styleUrl><name>WICHA Stanisław SLD</name><description>Kostomłoty SLD Wrocław</description><Point><coordinates>16.645595,51.058548</coordinates></Point></Placemark>
<Placemark><styleUrl>#PinX</styleUrl><name>MAŚLAK Robert BEZP</name><description>Wrocław (a) SLD Wrocław</description><Point><coordinates>16.969780,51.141955</coordinates></Point></Placemark>
<Placemark><styleUrl>#PinX</styleUrl><name>DĄBROWSKA Katarzyna LRazem</name><description>Wrocław (a) SLD Wrocław</description><Point><coordinates>16.994204,51.116651</coordinates></Point></Placemark>
<Placemark><styleUrl>#PinX</styleUrl><name>ŚMIAŁEK Danuta Maria SLD</name><description>Oborniki Śląskie SLD Wrocław</description><Point><coordinates>16.886156,51.278370</coordinates></Point></Placemark>
<Placemark><styleUrl>#PinX</styleUrl><name>TERPIŁOWSKA Irena Róża BEZP</name><description>Wrocław (a) SLD Wrocław</description><Point><coordinates>16.989769,51.136024</coordinates></Point></Placemark>
<Placemark><styleUrl>#PinX</styleUrl><name>MINCER Tadeusz Albert LRazem</name><description>Wrocław (a) SLD Wrocław</description><Point><coordinates>16.984642,51.120366</coordinates></Point></Placemark>
<Placemark><styleUrl>#PinX</styleUrl><name>KORDEK-CHMIELEWSKA Agnieszka Katarzyna SLD</name><description>Góra SLD Wrocław</description><Point><coordinates>16.544322,51.679863</coordinates></Point></Placemark>
<Placemark><styleUrl>#PinX</styleUrl><name>OLIK Waldemar Antoni Wiosna</name><description>Kobierzyce SLD Wrocław</description><Point><coordinates>16.939449,50.956558</coordinates></Point></Placemark>
<Placemark><styleUrl>#PinX</styleUrl><name>CHŁÓDEK Agnieszka Barbara LRazem</name><description>Kąty Wrocławskie SLD Wrocław</description><Point><coordinates>16.822072,51.032763</coordinates></Point></Placemark>
<Placemark><styleUrl>#PinX</styleUrl><name>MARKOWSKI Krzysztof LRazem</name><description>Wrocław (a) SLD Wrocław</description><Point><coordinates>17.012687,51.131396</coordinates></Point></Placemark>
<Placemark><styleUrl>#PinX</styleUrl><name>HODOWANY Andrzej Jerzy LRazem</name><description>Milicz SLD Wrocław</description><Point><coordinates>17.284452,51.506596</coordinates></Point></Placemark>
<Placemark><styleUrl>#PinX</styleUrl><name>NIEMIEC Jan Mateusz LRazem</name><description>Wrocław (a) SLD Wrocław</description><Point><coordinates>16.978019,51.151740</coordinates></Point></Placemark>
<Placemark><styleUrl>#PinX</styleUrl><name>BANACH Maria Teresa BEZP</name><description>Siechnice SLD Wrocław</description><Point><coordinates>17.143740,51.028959</coordinates></Point></Placemark>
<Placemark><styleUrl>#PinX</styleUrl><name>WARZYCHA Małgorzata Danuta LRazem</name><description>Siechnice SLD Wrocław</description><Point><coordinates>17.146638,51.030108</coordinates></Point></Placemark>
<Placemark><styleUrl>#PinX</styleUrl><name>PELWECKI Mateusz Dariusz LRazem</name><description>Wrocław (a) SLD Wrocław</description><Point><coordinates>16.967888,51.121771</coordinates></Point></Placemark>
<Placemark><styleUrl>#PinX</styleUrl><name>BOBIŃSKI Grzegorz Paweł SLD</name><description>Siechnice SLD Wrocław</description><Point><coordinates>17.143600,51.035985</coordinates></Point></Placemark>
<Placemark><styleUrl>#PinX</styleUrl><name>DZIEMIANOWICZ-BĄK Agnieszka Ewa BEZP</name><description>Wrocław (a) SLD Wrocław</description><Point><coordinates>16.980920,51.132603</coordinates></Point></Placemark>
<Placemark><styleUrl>#PinX</styleUrl><name>GAWKOWSKI Krzysztof Kamil Wiosna</name><description>Wołomin SLD Bydgoszcz</description><Point><coordinates>21.263428,52.357167</coordinates></Point></Placemark>
<Placemark><styleUrl>#PinX</styleUrl><name>SZOPIŃSKI Jan Józef SLD</name><description>Bydgoszcz (a) SLD Bydgoszcz</description><Point><coordinates>18.041701,53.116586</coordinates></Point></Placemark>
<Placemark><styleUrl>#PinX</styleUrl><name>WYSOCKI Michał LRazem</name><description>Pakość SLD Bydgoszcz</description><Point><coordinates>18.102742,52.812847</coordinates></Point></Placemark>
<Placemark><styleUrl>#PinX</styleUrl><name>NOWAK Izabela Anna BEZP</name><description>Nowy Tomyśl SLD Bydgoszcz</description><Point><coordinates>16.159185,52.315633</coordinates></Point></Placemark>
<Placemark><styleUrl>#PinX</styleUrl><name>LUDWISIAK-KAWECKA Anna Magdalena BEZP</name><description>Inowrocław SLD Bydgoszcz</description><Point><coordinates>18.258783,52.783860</coordinates></Point></Placemark>
<Placemark><styleUrl>#PinX</styleUrl><name>JELENIEWSKI Marek Krzysztof SLD</name><description>Bydgoszcz (a) SLD Bydgoszcz</description><Point><coordinates>18.049576,53.130124</coordinates></Point></Placemark>
<Placemark><styleUrl>#PinX</styleUrl><name>KOŃCZAK Danuta Elżbieta BEZP</name><description>Nakło nad Notecią SLD Bydgoszcz</description><Point><coordinates>17.646385,53.137693</coordinates></Point></Placemark>
<Placemark><styleUrl>#PinX</styleUrl><name>SKAŁECKI Damian Adam BEZP</name><description>Bydgoszcz (a) SLD Bydgoszcz</description><Point><coordinates>18.040163,53.137362</coordinates></Point></Placemark>
<Placemark><styleUrl>#PinX</styleUrl><name>KOZŁOWSKA Karolina LRazem</name><description>Bydgoszcz (a) SLD Bydgoszcz</description><Point><coordinates>18.040851,53.112538</coordinates></Point></Placemark>
<Placemark><styleUrl>#PinX</styleUrl><name>KNIOŁA Magdalena BEZP</name><description>Bydgoszcz (a) SLD Bydgoszcz</description><Point><coordinates>18.040306,53.130584</coordinates></Point></Placemark>
<Placemark><styleUrl>#PinX</styleUrl><name>BUDZIŃSKA Elżbieta Maria BEZP</name><description>Kruszwica SLD Bydgoszcz</description><Point><coordinates>18.367127,52.634630</coordinates></Point></Placemark>
<Placemark><styleUrl>#PinX</styleUrl><name>GINTER Sławomir Ryszard BEZP</name><description>Bydgoszcz (a) SLD Bydgoszcz</description><Point><coordinates>18.031672,53.145688</coordinates></Point></Placemark>
<Placemark><styleUrl>#PinX</styleUrl><name>SMOLAGA Aleksandra Justyna LRazem</name><description>Bydgoszcz (a) SLD Bydgoszcz</description><Point><coordinates>18.037080,53.109088</coordinates></Point></Placemark>
<Placemark><styleUrl>#PinX</styleUrl><name>MENARD Wiesław Tadeusz SLD</name><description>Warlubie SLD Bydgoszcz</description><Point><coordinates>18.554642,53.611965</coordinates></Point></Placemark>
<Placemark><styleUrl>#PinX</styleUrl><name>OSUCH Katarzyna Anna BEZP</name><description>Inowrocław SLD Bydgoszcz</description><Point><coordinates>18.257754,52.784886</coordinates></Point></Placemark>
<Placemark><styleUrl>#PinX</styleUrl><name>WARSICKA Teresa LRazem</name><description>Osielsko SLD Bydgoszcz</description><Point><coordinates>18.054831,53.214434</coordinates></Point></Placemark>
<Placemark><styleUrl>#PinX</styleUrl><name>FRĘŚ Mateusz BEZP</name><description>Drawsko SLD Bydgoszcz</description><Point><coordinates>16.018769,52.800699</coordinates></Point></Placemark>
<Placemark><styleUrl>#PinX</styleUrl><name>PIASKOWSKA Joanna Zuzanna członek partii politycznej: Twój Ruch</name><description>Osielsko SLD Bydgoszcz</description><Point><coordinates>18.057688,53.217142</coordinates></Point></Placemark>
<Placemark><styleUrl>#PinX</styleUrl><name>JAROSZ Piotr SLD</name><description>Cekcyn SLD Bydgoszcz</description><Point><coordinates>18.050922,53.568535</coordinates></Point></Placemark>
<Placemark><styleUrl>#PinX</styleUrl><name>GRUPA Artur BEZP</name><description>Bydgoszcz (a) SLD Bydgoszcz</description><Point><coordinates>18.045168,53.121793</coordinates></Point></Placemark>
<Placemark><styleUrl>#PinX</styleUrl><name>SKAJA Sebastian SLD</name><description>Kamień Krajeński SLD Bydgoszcz</description><Point><coordinates>17.527425,53.548934</coordinates></Point></Placemark>
<Placemark><styleUrl>#PinX</styleUrl><name>PISAREK Michał Mateusz BEZP</name><description>Bydgoszcz (a) SLD Bydgoszcz</description><Point><coordinates>18.034847,53.136519</coordinates></Point></Placemark>
<Placemark><styleUrl>#PinX</styleUrl><name>KRZESIŃSKI Tomasz SLD</name><description>Jeziora Wielkie SLD Bydgoszcz</description><Point><coordinates>18.223999,52.535942</coordinates></Point></Placemark>
<Placemark><styleUrl>#PinX</styleUrl><name>KWIATKOWSKI Robert Artur BEZP</name><description>Piaseczno SLD Toruń</description><Point><coordinates>21.000573,52.049357</coordinates></Point></Placemark>
<Placemark><styleUrl>#PinX</styleUrl><name>SCHEURING-WIELGUS Joanna Izabela BEZP</name><description>Toruń SLD Toruń</description><Point><coordinates>18.608889,53.000484</coordinates></Point></Placemark>
<Placemark><styleUrl>#PinX</styleUrl><name>ROZPŁOCH Marek Władysław LRazem</name><description>Toruń SLD Toruń</description><Point><coordinates>18.611831,53.017488</coordinates></Point></Placemark>
<Placemark><styleUrl>#PinX</styleUrl><name>KOWAL Piotr SLD</name><description>Włocławek SLD Toruń</description><Point><coordinates>19.058796,52.671272</coordinates></Point></Placemark>
<Placemark><styleUrl>#PinX</styleUrl><name>JANISZEWSKA Kazimiera Janina BEZP</name><description>Zławieś Wielka SLD Toruń</description><Point><coordinates>18.338365,53.099679</coordinates></Point></Placemark>
<Placemark><styleUrl>#PinX</styleUrl><name>RUMIŃSKA Maria Magdalena LRazem</name><description>Włocławek SLD Toruń</description><Point><coordinates>19.056487,52.655487</coordinates></Point></Placemark>
<Placemark><styleUrl>#PinX</styleUrl><name>AUGUSTINOWICZ Czesława Janina SLD</name><description>Kijewo Królewskie SLD Toruń</description><Point><coordinates>18.442529,53.262514</coordinates></Point></Placemark>
<Placemark><styleUrl>#PinX</styleUrl><name>MAŁECKI Krzysztof Michał LRazem</name><description>Chodecz SLD Toruń</description><Point><coordinates>19.023373,52.391119</coordinates></Point></Placemark>
<Placemark><styleUrl>#PinX</styleUrl><name>KUCZMARSKA Zofia BEZP</name><description>Wielgie SLD Toruń</description><Point><coordinates>19.256224,52.748926</coordinates></Point></Placemark>
<Placemark><styleUrl>#PinX</styleUrl><name>OLEWIŃSKI Sebastian Maciej SLD</name><description>Dobrzyń nad Wisłą SLD Toruń</description><Point><coordinates>19.308590,52.674950</coordinates></Point></Placemark>
<Placemark><styleUrl>#PinX</styleUrl><name>MAĆKIEWICZ Jolanta Ewa LRazem</name><description>Toruń SLD Toruń</description><Point><coordinates>18.605097,53.017206</coordinates></Point></Placemark>
<Placemark><styleUrl>#PinX</styleUrl><name>KRZYŻANOWSKI Andrzej Jerzy SLD</name><description>Ciechocinek SLD Toruń</description><Point><coordinates>18.793491,52.879129</coordinates></Point></Placemark>
<Placemark><styleUrl>#PinX</styleUrl><name>KRAJEWSKI Andrzej BEZP</name><description>Toruń SLD Toruń</description><Point><coordinates>18.592951,53.028869</coordinates></Point></Placemark>
<Placemark><styleUrl>#PinX</styleUrl><name>MATRASZEK Tomasz Piotr LRazem</name><description>Włocławek SLD Toruń</description><Point><coordinates>19.065717,52.663858</coordinates></Point></Placemark>
<Placemark><styleUrl>#PinX</styleUrl><name>CZERNIC Katarzyna LRazem</name><description>Toruń SLD Toruń</description><Point><coordinates>18.613855,53.016999</coordinates></Point></Placemark>
<Placemark><styleUrl>#PinX</styleUrl><name>ZAWADZKI Jerzy SLD</name><description>Brodnica SLD Toruń</description><Point><coordinates>19.400240,53.258552</coordinates></Point></Placemark>
<Placemark><styleUrl>#PinX</styleUrl><name>SZCZUROWSKA Inez Justyna BEZP</name><description>Piotrków Kujawski SLD Toruń</description><Point><coordinates>18.513815,52.531759</coordinates></Point></Placemark>
<Placemark><styleUrl>#PinX</styleUrl><name>EICHHORST Artur LRazem</name><description>Toruń SLD Toruń</description><Point><coordinates>18.597809,53.023960</coordinates></Point></Placemark>
<Placemark><styleUrl>#PinX</styleUrl><name>BYTNER Paweł Mateusz LRazem</name><description>Osiek SLD Toruń</description><Point><coordinates>19.399598,53.159309</coordinates></Point></Placemark>
<Placemark><styleUrl>#PinX</styleUrl><name>TURSKA Anna Zofia SLD</name><description>Lubanie SLD Toruń</description><Point><coordinates>18.920440,52.726414</coordinates></Point></Placemark>
<Placemark><styleUrl>#PinX</styleUrl><name>POKORSKA Julia Joanna LRazem</name><description>Toruń SLD Toruń</description><Point><coordinates>18.589918,53.007822</coordinates></Point></Placemark>
<Placemark><styleUrl>#PinX</styleUrl><name>OLEJNIK Stanisław Kazimierz SLD</name><description>Aleksandrów Kujawski SLD Toruń</description><Point><coordinates>18.702206,52.874933</coordinates></Point></Placemark>
<Placemark><styleUrl>#PinX</styleUrl><name>BELSKA Dorota LRazem</name><description>Toruń SLD Toruń</description><Point><coordinates>18.608622,53.011765</coordinates></Point></Placemark>
<Placemark><styleUrl>#PinX</styleUrl><name>KOWAROWSKI Łukasz Mariusz SLD</name><description>Grudziądz SLD Toruń</description><Point><coordinates>18.778524,53.465310</coordinates></Point></Placemark>
<Placemark><styleUrl>#PinX</styleUrl><name>CZERNIAK Jacek Andrzej SLD</name><description>Lublin SLD Lublin</description><Point><coordinates>22.577411,51.218167</coordinates></Point></Placemark>
<Placemark><styleUrl>#PinX</styleUrl><name>DŁUGOSZ Magdalena Anna LRazem</name><description>Lublin SLD Lublin</description><Point><coordinates>22.561618,51.198019</coordinates></Point></Placemark>
<Placemark><styleUrl>#PinX</styleUrl><name>KITLIŃSKI Tomasz BEZP</name><description>Lublin SLD Lublin</description><Point><coordinates>22.541846,51.203917</coordinates></Point></Placemark>
<Placemark><styleUrl>#PinX</styleUrl><name>MAZUREK Marek BEZP</name><description>Lublin SLD Lublin</description><Point><coordinates>22.568718,51.223036</coordinates></Point></Placemark>
<Placemark><styleUrl>#PinX</styleUrl><name>ZABRATAŃSKA Katarzyna Edyta LRazem</name><description>Lublin SLD Lublin</description><Point><coordinates>22.559474,51.230886</coordinates></Point></Placemark>
<Placemark><styleUrl>#PinX</styleUrl><name>KOŁODZIEJCZYK Marek Waldemar BEZP</name><description>Lublin SLD Lublin</description><Point><coordinates>22.587058,51.228096</coordinates></Point></Placemark>
<Placemark><styleUrl>#PinX</styleUrl><name>LACHOWSKI Robert Michał Wiosna</name><description>Lublin SLD Lublin</description><Point><coordinates>22.582940,51.199177</coordinates></Point></Placemark>
<Placemark><styleUrl>#PinX</styleUrl><name>LENART Agnieszka Monika SLD</name><description>Kraśnik SLD Lublin</description><Point><coordinates>22.206398,50.940490</coordinates></Point></Placemark>
<Placemark><styleUrl>#PinX</styleUrl><name>SKIBA Paulina Wiosna</name><description>Lublin SLD Lublin</description><Point><coordinates>22.549238,51.203528</coordinates></Point></Placemark>
<Placemark><styleUrl>#PinX</styleUrl><name>MARCINKOWSKA-KOZAK Agnieszka Halina LRazem</name><description>Wólka SLD Lublin</description><Point><coordinates>22.683933,51.285791</coordinates></Point></Placemark>
<Placemark><styleUrl>#PinX</styleUrl><name>MASZKOWSKI Władysław SLD</name><description>Niemce SLD Lublin</description><Point><coordinates>22.563834,51.347950</coordinates></Point></Placemark>
<Placemark><styleUrl>#PinX</styleUrl><name>REBEJKO Jolanta LRazem</name><description>Kraśnik SLD Lublin</description><Point><coordinates>22.206699,50.942460</coordinates></Point></Placemark>
<Placemark><styleUrl>#PinX</styleUrl><name>WICHA Beata BEZP</name><description>Puławy SLD Lublin</description><Point><coordinates>21.895766,51.456317</coordinates></Point></Placemark>
<Placemark><styleUrl>#PinX</styleUrl><name>BANAŚ Andrzej Wawrzyniec BEZP</name><description>Dęblin SLD Lublin</description><Point><coordinates>21.871096,51.567138</coordinates></Point></Placemark>
<Placemark><styleUrl>#PinX</styleUrl><name>STĘPNIAK Adrian Wiosna</name><description>Chodel SLD Lublin</description><Point><coordinates>22.146184,51.100618</coordinates></Point></Placemark>
<Placemark><styleUrl>#PinX</styleUrl><name>IWAN Jarosław Paweł LRazem</name><description>Michów SLD Lublin</description><Point><coordinates>22.335691,51.534908</coordinates></Point></Placemark>
<Placemark><styleUrl>#PinX</styleUrl><name>STOLARSKI Patryk Wiosna</name><description>Lublin SLD Lublin</description><Point><coordinates>22.554429,51.193801</coordinates></Point></Placemark>
<Placemark><styleUrl>#PinX</styleUrl><name>SŁOMKA Karolina BEZP</name><description>Lublin SLD Lublin</description><Point><coordinates>22.538037,51.224054</coordinates></Point></Placemark>
<Placemark><styleUrl>#PinX</styleUrl><name>KOWALSKA Barbara BEZP</name><description>Lublin SLD Lublin</description><Point><coordinates>22.545378,51.234119</coordinates></Point></Placemark>
<Placemark><styleUrl>#PinX</styleUrl><name>KACZYŃSKI Gabriel Jan LRazem</name><description>Świdnik (a) SLD Lublin</description><Point><coordinates>22.685376,51.206795</coordinates></Point></Placemark>
<Placemark><styleUrl>#PinX</styleUrl><name>ŁABAREWICZ Anna Maria BEZP</name><description>Lublin SLD Lublin</description><Point><coordinates>22.554784,51.244174</coordinates></Point></Placemark>
<Placemark><styleUrl>#PinX</styleUrl><name>ROJEK Grażyna Irena BEZP</name><description>Lublin SLD Lublin</description><Point><coordinates>22.552291,51.216311</coordinates></Point></Placemark>
<Placemark><styleUrl>#PinX</styleUrl><name>FIGURA Dariusz Władysław BEZP</name><description>Bełżyce SLD Lublin</description><Point><coordinates>22.247667,51.159473</coordinates></Point></Placemark>
<Placemark><styleUrl>#PinX</styleUrl><name>KUŁAGO Walenty BEZP</name><description>Lubartów SLD Lublin</description><Point><coordinates>22.611963,51.461569</coordinates></Point></Placemark>
<Placemark><styleUrl>#PinX</styleUrl><name>MIKITA-SKIBA Monika Barbara BEZP</name><description>Lublin SLD Lublin</description><Point><coordinates>22.576377,51.228168</coordinates></Point></Placemark>
<Placemark><styleUrl>#PinX</styleUrl><name>NOWICKI Grzegorz Jerzy BEZP</name><description>Lublin SLD Lublin</description><Point><coordinates>22.544649,51.221300</coordinates></Point></Placemark>
<Placemark><styleUrl>#PinX</styleUrl><name>KASZA Joanna Edyta LRazem</name><description>Dzierzkowice SLD Lublin</description><Point><coordinates>22.079254,50.956244</coordinates></Point></Placemark>
<Placemark><styleUrl>#PinX</styleUrl><name>SKUBIS Emilia Dominika BEZP</name><description>Lublin SLD Lublin</description><Point><coordinates>22.551909,51.212608</coordinates></Point></Placemark>
<Placemark><styleUrl>#PinX</styleUrl><name>FURMANIAK Szymon LRazem</name><description>Lublin SLD Lublin</description><Point><coordinates>22.580719,51.203749</coordinates></Point></Placemark>
<Placemark><styleUrl>#PinX</styleUrl><name>GALLANT Jacek Marek SLD</name><description>Lublin SLD Lublin</description><Point><coordinates>22.544515,51.230900</coordinates></Point></Placemark>
<Placemark><styleUrl>#PinX</styleUrl><name>PAWŁOWSKA Monika Jolanta Wiosna</name><description>Biała Podlaska SLD Chełm</description><Point><coordinates>23.135384,52.025434</coordinates></Point></Placemark>
<Placemark><styleUrl>#PinX</styleUrl><name>SZELĄG Piotr Edward członek partii politycznej: SLD</name><description>Hrubieszów (c) SLD Chełm</description><Point><coordinates>23.884660,50.805927</coordinates></Point></Placemark>
<Placemark><styleUrl>#PinX</styleUrl><name>BORYSIUK Bolesław Borys BEZP</name><description>Mst Warszawa (a) SLD Chełm</description><Point><coordinates>21.010067,52.229326</coordinates></Point></Placemark>
<Placemark><styleUrl>#PinX</styleUrl><name>ROGALA Sławomir BEZP</name><description>Czemierniki SLD Chełm</description><Point><coordinates>22.632477,51.673418</coordinates></Point></Placemark>
<Placemark><styleUrl>#PinX</styleUrl><name>GOŁOŚ Michał Reoland BEZP</name><description>Lublin SLD Chełm</description><Point><coordinates>22.565923,51.196120</coordinates></Point></Placemark>
<Placemark><styleUrl>#PinX</styleUrl><name>CZOBODZIŃSKA-PRZYBYSŁAWSKA Anna Jadwiga członek partii politycznej: SLD</name><description>Sosnówka SLD Chełm</description><Point><coordinates>23.350671,51.738310</coordinates></Point></Placemark>
<Placemark><styleUrl>#PinX</styleUrl><name>WASZKIEWICZ Gerard BEZP</name><description>Sitno SLD Chełm</description><Point><coordinates>23.388366,50.744955</coordinates></Point></Placemark>
<Placemark><styleUrl>#PinX</styleUrl><name>PAMULSKA Łucja Jadwiga członek partii politycznej: SLD</name><description>Włodawa SLD Chełm</description><Point><coordinates>23.537948,51.545292</coordinates></Point></Placemark>
<Placemark><styleUrl>#PinX</styleUrl><name>DOBOSZ-FURMAN Patrycja Anna BEZP</name><description>Parczew SLD Chełm</description><Point><coordinates>22.913314,51.599865</coordinates></Point></Placemark>
<Placemark><styleUrl>#PinX</styleUrl><name>KAMOLA Magdalena Małgorzata członek partii politycznej: SLD</name><description>Jabłoń SLD Chełm</description><Point><coordinates>23.057591,51.703833</coordinates></Point></Placemark>
<Placemark><styleUrl>#PinX</styleUrl><name>BARTOSZEWSKA-WIC Ewa Monika członek partii politycznej: SLD</name><description>Świdnik (a) SLD Chełm</description><Point><coordinates>22.684479,51.208860</coordinates></Point></Placemark>
<Placemark><styleUrl>#PinX</styleUrl><name>MACERONI Grażyna Zofia BEZP</name><description>Dubienka SLD Chełm</description><Point><coordinates>23.850489,51.036638</coordinates></Point></Placemark>
<Placemark><styleUrl>#PinX</styleUrl><name>TROJNIEL-GOŹDZIOŁKO Aldona Wioleta BEZP</name><description>Zalesie SLD Chełm</description><Point><coordinates>23.398553,52.062745</coordinates></Point></Placemark>
<Placemark><styleUrl>#PinX</styleUrl><name>LITWINIEC Zbigniew członek partii politycznej: SLD</name><description>Radzyń Podlaski SLD Chełm</description><Point><coordinates>22.623708,51.773062</coordinates></Point></Placemark>
<Placemark><styleUrl>#PinX</styleUrl><name>MALCZEWSKI Jacek Michał BEZP</name><description>Biłgoraj SLD Chełm</description><Point><coordinates>22.714241,50.539702</coordinates></Point></Placemark>
<Placemark><styleUrl>#PinX</styleUrl><name>JASEK-KOSOBUCKA Justyna BEZP</name><description>Biała Podlaska SLD Chełm</description><Point><coordinates>23.143070,52.029069</coordinates></Point></Placemark>
<Placemark><styleUrl>#PinX</styleUrl><name>KAPŁON Monika LRazem</name><description>Kąkolewnica SLD Chełm</description><Point><coordinates>22.669211,51.902566</coordinates></Point></Placemark>
<Placemark><styleUrl>#PinX</styleUrl><name>CHĘĆ Jacek Tomasz BEZP</name><description>Włodawa SLD Chełm</description><Point><coordinates>23.538942,51.540637</coordinates></Point></Placemark>
<Placemark><styleUrl>#PinX</styleUrl><name>TABOR Magdalena Aleksandra LRazem</name><description>Lublin SLD Chełm</description><Point><coordinates>22.553110,51.229156</coordinates></Point></Placemark>
<Placemark><styleUrl>#PinX</styleUrl><name>KUROWSKI Jan Bolesław członek partii politycznej: SLD</name><description>Piszczac SLD Chełm</description><Point><coordinates>23.379671,51.959247</coordinates></Point></Placemark>
<Placemark><styleUrl>#PinX</styleUrl><name>ŻUKOWSKI Stanisław BEZP</name><description>Siedliszcze SLD Chełm</description><Point><coordinates>23.178357,51.205353</coordinates></Point></Placemark>
<Placemark><styleUrl>#PinX</styleUrl><name>KOZICKA Katarzyna Małgorzata BEZP</name><description>Wohyń SLD Chełm</description><Point><coordinates>22.800926,51.763762</coordinates></Point></Placemark>
<Placemark><styleUrl>#PinX</styleUrl><name>ROCZON Mateusz Maciej LRazem</name><description>Lublin SLD Chełm</description><Point><coordinates>22.566721,51.208068</coordinates></Point></Placemark>
<Placemark><styleUrl>#PinX</styleUrl><name>KIEŁBASA Bogdan Antoni BEZP</name><description>Biłgoraj SLD Chełm</description><Point><coordinates>22.713967,50.537289</coordinates></Point></Placemark>
<Placemark><styleUrl>#PinX</styleUrl><name>KUCHARSKA-DZIEDZIC Anita Agnieszka Wiosna</name><description>Zielona Góra (a) SLD Zielona Góra</description><Point><coordinates>15.509461,51.921412</coordinates></Point></Placemark>
<Placemark><styleUrl>#PinX</styleUrl><name>WONTOR Bogusław Tadeusz SLD</name><description>Sulechów SLD Zielona Góra</description><Point><coordinates>15.577939,52.089559</coordinates></Point></Placemark>
<Placemark><styleUrl>#PinX</styleUrl><name>RUSZKOWSKA Adrianna LRazem</name><description>Zielona Góra (a) SLD Zielona Góra</description><Point><coordinates>15.533272,51.924754</coordinates></Point></Placemark>
<Placemark><styleUrl>#PinX</styleUrl><name>STOJANOWSKI Artur BEZP</name><description>Witnica SLD Zielona Góra</description><Point><coordinates>14.858285,52.689122</coordinates></Point></Placemark>
<Placemark><styleUrl>#PinX</styleUrl><name>GARGUL Anna LRazem</name><description>Tuplice SLD Zielona Góra</description><Point><coordinates>14.891759,51.695928</coordinates></Point></Placemark>
<Placemark><styleUrl>#PinX</styleUrl><name>STARSZAK Wojciech Kazimierz SLD</name><description>Sulechów SLD Zielona Góra</description><Point><coordinates>15.572658,52.100893</coordinates></Point></Placemark>
<Placemark><styleUrl>#PinX</styleUrl><name>OCH Ewa Maria SLD</name><description>Kostrzyn nad Odrą SLD Zielona Góra</description><Point><coordinates>14.642177,52.614291</coordinates></Point></Placemark>
<Placemark><styleUrl>#PinX</styleUrl><name>ŁYSIAK Bernard Krzysztof LRazem</name><description>Słubice SLD Zielona Góra</description><Point><coordinates>14.641500,52.364349</coordinates></Point></Placemark>
<Placemark><styleUrl>#PinX</styleUrl><name>BUZAREWICZ-KOWAL Irena BEZP</name><description>Międzyrzecz SLD Zielona Góra</description><Point><coordinates>15.583634,52.443706</coordinates></Point></Placemark>
<Placemark><styleUrl>#PinX</styleUrl><name>HAŁABURA Damian Karol BEZP</name><description>Żary SLD Zielona Góra</description><Point><coordinates>15.144456,51.619417</coordinates></Point></Placemark>
<Placemark><styleUrl>#PinX</styleUrl><name>RAKSA Iwona Marzena BEZP</name><description>Drezdenko SLD Zielona Góra</description><Point><coordinates>15.781527,52.827380</coordinates></Point></Placemark>
<Placemark><styleUrl>#PinX</styleUrl><name>WŁODEK Waldemar Jacek BEZP</name><description>Sulechów SLD Zielona Góra</description><Point><coordinates>15.581159,52.096340</coordinates></Point></Placemark>
<Placemark><styleUrl>#PinX</styleUrl><name>BĄK Monika BEZP</name><description>Wschowa SLD Zielona Góra</description><Point><coordinates>16.283081,51.817987</coordinates></Point></Placemark>
<Placemark><styleUrl>#PinX</styleUrl><name>ROŻEK Eugeniusz LRazem</name><description>Gorzów Wielkopolski SLD Zielona Góra</description><Point><coordinates>15.226193,52.737187</coordinates></Point></Placemark>
<Placemark><styleUrl>#PinX</styleUrl><name>SZKUDLAREK Julita Monika BEZP</name><description>Kostrzyn nad Odrą SLD Zielona Góra</description><Point><coordinates>14.639897,52.610655</coordinates></Point></Placemark>
<Placemark><styleUrl>#PinX</styleUrl><name>WALCZAK Tomasz BEZP</name><description>Drezdenko SLD Zielona Góra</description><Point><coordinates>15.781161,52.825850</coordinates></Point></Placemark>
<Placemark><styleUrl>#PinX</styleUrl><name>ŻEGILEWICZ - ZAWADZKA Katarzyna Magdalena SLD</name><description>Gorzów Wielkopolski SLD Zielona Góra</description><Point><coordinates>15.225623,52.728486</coordinates></Point></Placemark>
<Placemark><styleUrl>#PinX</styleUrl><name>WITA Paweł BEZP</name><description>Sulechów SLD Zielona Góra</description><Point><coordinates>15.577346,52.090637</coordinates></Point></Placemark>
<Placemark><styleUrl>#PinX</styleUrl><name>KOMAJDA Natalia Roksana LRazem</name><description>Dobra (Szczecińska) SLD Zielona Góra</description><Point><coordinates>14.397611,53.491501</coordinates></Point></Placemark>
<Placemark><styleUrl>#PinX</styleUrl><name>SOKOŁOWSKI Leszek Nowoczesna</name><description>Gorzów Wielkopolski SLD Zielona Góra</description><Point><coordinates>15.222020,52.736461</coordinates></Point></Placemark>
<Placemark><styleUrl>#PinX</styleUrl><name>GRANDE Julieta BEZP</name><description>Gorzów Wielkopolski SLD Zielona Góra</description><Point><coordinates>15.214826,52.730528</coordinates></Point></Placemark>
<Placemark><styleUrl>#PinX</styleUrl><name>WIŚNIEWSKI Wacław Andrzej BEZP</name><description>Gorzów Wielkopolski SLD Zielona Góra</description><Point><coordinates>15.211029,52.723533</coordinates></Point></Placemark>
<Placemark><styleUrl>#PinX</styleUrl><name>DRUBKOWSKA Monika BEZP</name><description>Gorzów Wielkopolski SLD Zielona Góra</description><Point><coordinates>15.219583,52.734075</coordinates></Point></Placemark>
<Placemark><styleUrl>#PinX</styleUrl><name>SZMYTKOWSKI Michał Paweł LRazem</name><description>Gorzów Wielkopolski SLD Zielona Góra</description><Point><coordinates>15.218466,52.730886</coordinates></Point></Placemark>
<Placemark><styleUrl>#PinX</styleUrl><name>TRELA Tomasz Dominik SLD</name><description>Łódź (a) SLD Łódź</description><Point><coordinates>19.469449,51.775303</coordinates></Point></Placemark>
<Placemark><styleUrl>#PinX</styleUrl><name>GILL-PIĄTEK Hanna Beata Wiosna</name><description>Łódź (a) SLD Łódź</description><Point><coordinates>19.463016,51.752508</coordinates></Point></Placemark>
<Placemark><styleUrl>#PinX</styleUrl><name>KWIATKOWSKI Michał Wojciech LRazem</name><description>Łódź (a) SLD Łódź</description><Point><coordinates>19.486427,51.787020</coordinates></Point></Placemark>
<Placemark><styleUrl>#PinX</styleUrl><name>PAWŁOWSKI Sylwester Stefan SLD</name><description>Łódź (a) SLD Łódź</description><Point><coordinates>19.476828,51.772414</coordinates></Point></Placemark>
<Placemark><styleUrl>#PinX</styleUrl><name>FRĄCZAK Tomasz Wiosna</name><description>Łódź (a) SLD Łódź</description><Point><coordinates>19.479212,51.767538</coordinates></Point></Placemark>
<Placemark><styleUrl>#PinX</styleUrl><name>URBAŃCZYK Martyna Natalia LRazem</name><description>Łódź (a) SLD Łódź</description><Point><coordinates>19.484190,51.795701</coordinates></Point></Placemark>
<Placemark><styleUrl>#PinX</styleUrl><name>WIETESKA Agnieszka Maria SLD</name><description>Łódź (a) SLD Łódź</description><Point><coordinates>19.502027,51.774703</coordinates></Point></Placemark>
<Placemark><styleUrl>#PinX</styleUrl><name>MARKOWSKA-KURC Maria Wanda BEZP</name><description>Koluszki SLD Łódź</description><Point><coordinates>19.826578,51.724423</coordinates></Point></Placemark>
<Placemark><styleUrl>#PinX</styleUrl><name>RACHALEWSKI Michał Cezary LRazem</name><description>Łódź (a) SLD Łódź</description><Point><coordinates>19.475630,51.743363</coordinates></Point></Placemark>
<Placemark><styleUrl>#PinX</styleUrl><name>OLEJNICZAK Michał Andrzej BEZP</name><description>Łódź (a) SLD Łódź</description><Point><coordinates>19.488385,51.792566</coordinates></Point></Placemark>
<Placemark><styleUrl>#PinX</styleUrl><name>MELANIUK Patrycja Karolina BEZP</name><description>Andrespol SLD Łódź</description><Point><coordinates>19.641488,51.722401</coordinates></Point></Placemark>
<Placemark><styleUrl>#PinX</styleUrl><name>WOJCIECHOWSKI Igor Marcin Wiosna</name><description>Zduńska Wola SLD Łódź</description><Point><coordinates>18.961488,51.598383</coordinates></Point></Placemark>
<Placemark><styleUrl>#PinX</styleUrl><name>ŚWIDERSKA Beata Katarzyna BEZP</name><description>Łódź (a) SLD Łódź</description><Point><coordinates>19.457221,51.767981</coordinates></Point></Placemark>
<Placemark><styleUrl>#PinX</styleUrl><name>SOKOŁOWICZ Mariusz Paweł BEZP</name><description>Łódź (a) SLD Łódź</description><Point><coordinates>19.479688,51.791569</coordinates></Point></Placemark>
<Placemark><styleUrl>#PinX</styleUrl><name>WOJECH Adam SLD</name><description>Łódź (a) SLD Łódź</description><Point><coordinates>19.449178,51.773902</coordinates></Point></Placemark>
<Placemark><styleUrl>#PinX</styleUrl><name>MINKIEWICZ Tomasz Jacek LRazem</name><description>Łódź (a) SLD Łódź</description><Point><coordinates>19.496757,51.748304</coordinates></Point></Placemark>
<Placemark><styleUrl>#PinX</styleUrl><name>KOŁACIŃSKI Jakub Zdzisław członek partii politycznej: Polska Partia Socjalistyczna</name><description>Łódź (a) SLD Łódź</description><Point><coordinates>19.474997,51.771106</coordinates></Point></Placemark>
<Placemark><styleUrl>#PinX</styleUrl><name>PAWLIK-NOWACKA Wioleta Kamila SLD</name><description>Łódź (a) SLD Łódź</description><Point><coordinates>19.468848,51.796196</coordinates></Point></Placemark>
<Placemark><styleUrl>#PinX</styleUrl><name>PĘDZIWIATR Elżbieta Bogumiła BEZP</name><description>Łódź (a) SLD Łódź</description><Point><coordinates>19.480362,51.744782</coordinates></Point></Placemark>
<Placemark><styleUrl>#PinX</styleUrl><name>BORS Piotr Marcin SLD</name><description>Łódź (a) SLD Łódź</description><Point><coordinates>19.502908,51.781961</coordinates></Point></Placemark>
<Placemark><styleUrl>#PinX</styleUrl><name>SOWIŃSKA Anita Katarzyna Wiosna</name><description>Łódź (a) SLD Piotrków Trybunalski</description><Point><coordinates>19.459505,51.779181</coordinates></Point></Placemark>
<Placemark><styleUrl>#PinX</styleUrl><name>OSTROWSKI Artur Zygmunt SLD</name><description>Piotrków Trybunalski SLD Piotrków Trybunalski</description><Point><coordinates>19.716521,51.408360</coordinates></Point></Placemark>
<Placemark><styleUrl>#PinX</styleUrl><name>PANAK Marta LRazem</name><description>Lipce Reymontowskie SLD Piotrków Trybunalski</description><Point><coordinates>19.938710,51.909804</coordinates></Point></Placemark>
<Placemark><styleUrl>#PinX</styleUrl><name>ROZPARA Tadeusz SLD</name><description>Bełchatów SLD Piotrków Trybunalski</description><Point><coordinates>19.366616,51.355986</coordinates></Point></Placemark>
<Placemark><styleUrl>#PinX</styleUrl><name>PTAK Małgorzata Alicja BEZP</name><description>Radomsko SLD Piotrków Trybunalski</description><Point><coordinates>19.441517,51.078418</coordinates></Point></Placemark>
<Placemark><styleUrl>#PinX</styleUrl><name>WAŁACH Małgorzata Dorota SLD</name><description>Tomaszów Mazowiecki SLD Piotrków Trybunalski</description><Point><coordinates>20.023306,51.526593</coordinates></Point></Placemark>
<Placemark><styleUrl>#PinX</styleUrl><name>PAWELCZYK Andrzej Krzysztof LRazem</name><description>Bełchatów SLD Piotrków Trybunalski</description><Point><coordinates>19.360485,51.353435</coordinates></Point></Placemark>
<Placemark><styleUrl>#PinX</styleUrl><name>KLEMBA Julia Anna LRazem</name><description>Skierniewice SLD Piotrków Trybunalski</description><Point><coordinates>20.164746,51.951599</coordinates></Point></Placemark>
<Placemark><styleUrl>#PinX</styleUrl><name>LEWANDOWSKI Tomasz LRazem</name><description>Skierniewice SLD Piotrków Trybunalski</description><Point><coordinates>20.171863,51.960166</coordinates></Point></Placemark>
<Placemark><styleUrl>#PinX</styleUrl><name>ZIĘBA Paweł SLD</name><description>Przedbórz SLD Piotrków Trybunalski</description><Point><coordinates>19.950588,51.084150</coordinates></Point></Placemark>
<Placemark><styleUrl>#PinX</styleUrl><name>BIENIAS Agnieszka SLD</name><description>Rawa Mazowiecka SLD Piotrków Trybunalski</description><Point><coordinates>20.254786,51.755073</coordinates></Point></Placemark>
<Placemark><styleUrl>#PinX</styleUrl><name>ROCHMIŃSKI Paweł SLD</name><description>Biała Rawska SLD Piotrków Trybunalski</description><Point><coordinates>20.468053,51.820179</coordinates></Point></Placemark>
<Placemark><styleUrl>#PinX</styleUrl><name>MANDAT Joanna Ewa BEZP</name><description>Łask SLD Piotrków Trybunalski</description><Point><coordinates>19.144490,51.621560</coordinates></Point></Placemark>
<Placemark><styleUrl>#PinX</styleUrl><name>PODPORA Mariusz Łukasz LRazem</name><description>Tomaszów Mazowiecki SLD Piotrków Trybunalski</description><Point><coordinates>20.026802,51.514873</coordinates></Point></Placemark>
<Placemark><styleUrl>#PinX</styleUrl><name>SULKA Monika Zofia LRazem</name><description>Piotrków Trybunalski SLD Piotrków Trybunalski</description><Point><coordinates>19.723258,51.410123</coordinates></Point></Placemark>
<Placemark><styleUrl>#PinX</styleUrl><name>ŻURAW Elżbieta Małgorzata Wiosna</name><description>Łódź (a) SLD Piotrków Trybunalski</description><Point><coordinates>19.510763,51.767351</coordinates></Point></Placemark>
<Placemark><styleUrl>#PinX</styleUrl><name>JABŁOŃSKI Marek Jerzy członek partii politycznej: Polska Partia Socjalistyczna</name><description>Łódź (a) SLD Piotrków Trybunalski</description><Point><coordinates>19.494115,51.755059</coordinates></Point></Placemark>
<Placemark><styleUrl>#PinX</styleUrl><name>KOWALCZYK Mariusz Krzysztof BEZP</name><description>Bełchatów SLD Piotrków Trybunalski</description><Point><coordinates>19.371306,51.355562</coordinates></Point></Placemark>
<Placemark><styleUrl>#PinX</styleUrl><name>MATYSIAK Paulina LRazem</name><description>Kutno SLD Sieradz</description><Point><coordinates>19.365328,52.225592</coordinates></Point></Placemark>
<Placemark><styleUrl>#PinX</styleUrl><name>OLEJNICZAK Cezary Roman SLD</name><description>Bielawy SLD Sieradz</description><Point><coordinates>19.643877,52.082912</coordinates></Point></Placemark>
<Placemark><styleUrl>#PinX</styleUrl><name>IDZIKOWSKI Wiktor Wiosna</name><description>Sieradz SLD Sieradz</description><Point><coordinates>18.734973,51.609173</coordinates></Point></Placemark>
<Placemark><styleUrl>#PinX</styleUrl><name>KAŹMIERSKA-MAŁYSKA Iwona Monika BEZP</name><description>Wieruszów SLD Sieradz</description><Point><coordinates>18.161605,51.326356</coordinates></Point></Placemark>
<Placemark><styleUrl>#PinX</styleUrl><name>WALUDA Henryk SLD</name><description>Sieradz SLD Sieradz</description><Point><coordinates>18.762267,51.583299</coordinates></Point></Placemark>
<Placemark><styleUrl>#PinX</styleUrl><name>SIKORA Anna Iwona LRazem</name><description>Sieradz SLD Sieradz</description><Point><coordinates>18.736711,51.601376</coordinates></Point></Placemark>
<Placemark><styleUrl>#PinX</styleUrl><name>PIETRZAK Michał Damian Wiosna</name><description>Dobroń SLD Sieradz</description><Point><coordinates>19.237195,51.619533</coordinates></Point></Placemark>
<Placemark><styleUrl>#PinX</styleUrl><name>LEWICKA Zdzisława Teresa LRazem</name><description>Warta SLD Sieradz</description><Point><coordinates>18.664802,51.735666</coordinates></Point></Placemark>
<Placemark><styleUrl>#PinX</styleUrl><name>LORENC Patryk Wiosna</name><description>Zduńska Wola SLD Sieradz</description><Point><coordinates>18.919877,51.620509</coordinates></Point></Placemark>
<Placemark><styleUrl>#PinX</styleUrl><name>KARPIŃSKI Marcin SLD</name><description>Zgierz SLD Sieradz</description><Point><coordinates>19.391066,51.940868</coordinates></Point></Placemark>
<Placemark><styleUrl>#PinX</styleUrl><name>BŁASZCZYK Anna Maria BEZP</name><description>Wieluń SLD Sieradz</description><Point><coordinates>18.578666,51.226282</coordinates></Point></Placemark>
<Placemark><styleUrl>#PinX</styleUrl><name>WALCZAK Sebastian Bartosz Wiosna</name><description>Kutno SLD Sieradz</description><Point><coordinates>19.364419,52.219145</coordinates></Point></Placemark>
<Placemark><styleUrl>#PinX</styleUrl><name>KOŚCIAN Monika BEZP</name><description>Zduńska Wola SLD Sieradz</description><Point><coordinates>18.962178,51.599545</coordinates></Point></Placemark>
<Placemark><styleUrl>#PinX</styleUrl><name>RAJ Przemysław LRazem</name><description>Sieradz SLD Sieradz</description><Point><coordinates>18.746628,51.604424</coordinates></Point></Placemark>
<Placemark><styleUrl>#PinX</styleUrl><name>BUNDZYLAK-DĄBROWSKA Agnieszka Czesława BEZP</name><description>Zgierz SLD Sieradz</description><Point><coordinates>19.393955,51.859289</coordinates></Point></Placemark>
<Placemark><styleUrl>#PinX</styleUrl><name>WOLSKA Anna Maria BEZP</name><description>Kutno SLD Sieradz</description><Point><coordinates>19.364973,52.221645</coordinates></Point></Placemark>
<Placemark><styleUrl>#PinX</styleUrl><name>ZIĘBA Piotr członek partii politycznej: Polska Partia Socjalistyczna</name><description>Szadek SLD Sieradz</description><Point><coordinates>18.951999,51.713555</coordinates></Point></Placemark>
<Placemark><styleUrl>#PinX</styleUrl><name>CIUBORSKI Piotr Krzysztof Wiosna</name><description>Czarnożyły SLD Sieradz</description><Point><coordinates>18.559912,51.290135</coordinates></Point></Placemark>
<Placemark><styleUrl>#PinX</styleUrl><name>JĘDRYSIAK-URBAŃSKA Olga SLD</name><description>Działoszyn SLD Sieradz</description><Point><coordinates>18.847207,51.111151</coordinates></Point></Placemark>
<Placemark><styleUrl>#PinX</styleUrl><name>PŁÓCIENNIK Marek SLD</name><description>Burzenin SLD Sieradz</description><Point><coordinates>18.776584,51.437918</coordinates></Point></Placemark>
<Placemark><styleUrl>#PinX</styleUrl><name>SKOCZYLAS Adrian Wiosna</name><description>Zgierz SLD Sieradz</description><Point><coordinates>19.394561,51.844466</coordinates></Point></Placemark>
<Placemark><styleUrl>#PinX</styleUrl><name>BORKIEWICZ Kinga BEZP</name><description>Zduńska Wola SLD Sieradz</description><Point><coordinates>18.957433,51.595981</coordinates></Point></Placemark>
<Placemark><styleUrl>#PinX</styleUrl><name>GRABSKI Rafał LRazem</name><description>Aleksandrów Łódzki SLD Sieradz</description><Point><coordinates>19.246768,51.822233</coordinates></Point></Placemark>
<Placemark><styleUrl>#PinX</styleUrl><name>GRYGLEWSKI Marek Józef SLD</name><description>Pabianice SLD Sieradz</description><Point><coordinates>19.355061,51.663207</coordinates></Point></Placemark>
<Placemark><styleUrl>#PinX</styleUrl><name>ŚMIAŁEK Ryszard Kazimierz SLD</name><description>Kraków (a) SLD Kraków</description><Point><coordinates>20.030354,50.068329</coordinates></Point></Placemark>
<Placemark><styleUrl>#PinX</styleUrl><name>WÓJTOWICZ Katarzyna Małgorzata BEZP</name><description>Kraków (a) SLD Kraków</description><Point><coordinates>19.996718,50.031870</coordinates></Point></Placemark>
<Placemark><styleUrl>#PinX</styleUrl><name>ZAWADA Tomasz Leszek LRazem</name><description>Kraków (a) SLD Kraków</description><Point><coordinates>19.985444,50.030703</coordinates></Point></Placemark>
<Placemark><styleUrl>#PinX</styleUrl><name>BROŻEK Dominika Maria BEZP</name><description>Chrzanów SLD Kraków</description><Point><coordinates>19.380048,50.137348</coordinates></Point></Placemark>
<Placemark><styleUrl>#PinX</styleUrl><name>JEZIERSKI Paweł Stanisław BEZP</name><description>Oświęcim SLD Kraków</description><Point><coordinates>19.245256,50.014573</coordinates></Point></Placemark>
<Placemark><styleUrl>#PinX</styleUrl><name>KOWALÓWKA Michał Grzegorz LRazem</name><description>Kraków (a) SLD Kraków</description><Point><coordinates>19.983789,50.026890</coordinates></Point></Placemark>
<Placemark><styleUrl>#PinX</styleUrl><name>RAUCH Jan Zbigniew SLD</name><description>Wadowice SLD Kraków</description><Point><coordinates>19.531478,49.863808</coordinates></Point></Placemark>
<Placemark><styleUrl>#PinX</styleUrl><name>STASIK Iwona Ewa członek partii politycznej: Razem</name><description>Kraków (a) SLD Kraków</description><Point><coordinates>20.008048,50.014568</coordinates></Point></Placemark>
<Placemark><styleUrl>#PinX</styleUrl><name>FILIPEK Magdalena członek partii politycznej: Twój Ruch</name><description>Alwernia SLD Kraków</description><Point><coordinates>19.544966,50.068886</coordinates></Point></Placemark>
<Placemark><styleUrl>#PinX</styleUrl><name>KUC Maria Teresa BEZP</name><description>Chrzanów SLD Kraków</description><Point><coordinates>19.382874,50.145282</coordinates></Point></Placemark>
<Placemark><styleUrl>#PinX</styleUrl><name>JANUSZYK Władysław SLD</name><description>Oświęcim SLD Kraków</description><Point><coordinates>19.250414,50.036395</coordinates></Point></Placemark>
<Placemark><styleUrl>#PinX</styleUrl><name>LEGOŃ Natalia Joanna LRazem</name><description>Kraków (a) SLD Kraków</description><Point><coordinates>19.996575,50.035084</coordinates></Point></Placemark>
<Placemark><styleUrl>#PinX</styleUrl><name>GUGULSKI Jarosław Marek SLD</name><description>Kęty SLD Kraków</description><Point><coordinates>19.236847,49.912620</coordinates></Point></Placemark>
<Placemark><styleUrl>#PinX</styleUrl><name>TYMAN Agnieszka LRazem</name><description>Kraków (a) SLD Kraków</description><Point><coordinates>20.013507,50.052731</coordinates></Point></Placemark>
<Placemark><styleUrl>#PinX</styleUrl><name>KAJDAS Dorota Ewa BEZP</name><description>Oświęcim SLD Kraków</description><Point><coordinates>19.259667,50.031930</coordinates></Point></Placemark>
<Placemark><styleUrl>#PinX</styleUrl><name>JAGLARZ Jakub Jerzy SLD</name><description>Wadowice SLD Kraków</description><Point><coordinates>19.535648,49.859868</coordinates></Point></Placemark>
<Placemark><styleUrl>#PinX</styleUrl><name>GDULA Maciej Roman BEZP</name><description>Mst Warszawa (a) SLD Kraków</description><Point><coordinates>21.056859,52.242832</coordinates></Point></Placemark>
<Placemark><styleUrl>#PinX</styleUrl><name>GOSEK-POPIOŁEK Daria Iwona LRazem</name><description>Kraków (a) SLD Kraków</description><Point><coordinates>20.007682,50.022796</coordinates></Point></Placemark>
<Placemark><styleUrl>#PinX</styleUrl><name>LIPIŃSKA-PIEKARSKA Joanna Olszyna SLD</name><description>Kraków (a) SLD Kraków</description><Point><coordinates>19.995388,50.060283</coordinates></Point></Placemark>
<Placemark><styleUrl>#PinX</styleUrl><name>KRÓL Józef Stanisław BEZP</name><description>Kraków (a) SLD Kraków</description><Point><coordinates>19.998403,50.046433</coordinates></Point></Placemark>
<Placemark><styleUrl>#PinX</styleUrl><name>DROPEK Magdalena BEZP</name><description>Żywiec SLD Kraków</description><Point><coordinates>19.216474,49.706910</coordinates></Point></Placemark>
<Placemark><styleUrl>#PinX</styleUrl><name>KUBAŃSKA Magdalena Bronisława SLD</name><description>Bukowno SLD Kraków</description><Point><coordinates>19.415896,50.261200</coordinates></Point></Placemark>
<Placemark><styleUrl>#PinX</styleUrl><name>BIELAWSKA Barbara Ewa LRazem</name><description>Kraków (a) SLD Kraków</description><Point><coordinates>19.981784,50.055441</coordinates></Point></Placemark>
<Placemark><styleUrl>#PinX</styleUrl><name>TRZYBIŃSKI Marek SLD</name><description>Kraków (a) SLD Kraków</description><Point><coordinates>19.994329,50.036574</coordinates></Point></Placemark>
<Placemark><styleUrl>#PinX</styleUrl><name>SZYMAŃSKA Monika Anna LRazem</name><description>Kraków (a) SLD Kraków</description><Point><coordinates>20.021246,50.019654</coordinates></Point></Placemark>
<Placemark><styleUrl>#PinX</styleUrl><name>PLEBAŃCZYK Piotr BEZP</name><description>Szczurowa SLD Kraków</description><Point><coordinates>20.634128,50.125051</coordinates></Point></Placemark>
<Placemark><styleUrl>#PinX</styleUrl><name>HAŃDEREK Joanna Ewa BEZP</name><description>Kraków (a) SLD Kraków</description><Point><coordinates>19.980944,50.024705</coordinates></Point></Placemark>
<Placemark><styleUrl>#PinX</styleUrl><name>ŚRODA Piotr Andrzej BEZP</name><description>Kraków (a) SLD Kraków</description><Point><coordinates>20.000242,50.074599</coordinates></Point></Placemark>
<Placemark><styleUrl>#PinX</styleUrl><name>BERYT Alicja Joanna LRazem</name><description>Kraków (a) SLD Kraków</description><Point><coordinates>19.972668,50.049826</coordinates></Point></Placemark>
<Placemark><styleUrl>#PinX</styleUrl><name>FRENKIEL Monika Iwona BEZP</name><description>Kraków (a) SLD Kraków</description><Point><coordinates>20.035550,50.054758</coordinates></Point></Placemark>
<Placemark><styleUrl>#PinX</styleUrl><name>KAWĘCKA Dorota Zuzanna LRazem</name><description>Kraków (a) SLD Kraków</description><Point><coordinates>19.997805,50.077580</coordinates></Point></Placemark>
<Placemark><styleUrl>#PinX</styleUrl><name>BURZAWA Mateusz Ryszard LRazem</name><description>Kraków (a) SLD Kraków</description><Point><coordinates>19.999426,50.052702</coordinates></Point></Placemark>
<Placemark><styleUrl>#PinX</styleUrl><name>WOLAŃSKA Katarzyna Anna BEZP</name><description>Kraków (a) SLD Kraków</description><Point><coordinates>19.988507,50.030184</coordinates></Point></Placemark>
<Placemark><styleUrl>#PinX</styleUrl><name>IVCHENKO Olesia LRazem</name><description>Kraków (a) SLD Kraków</description><Point><coordinates>19.987201,50.021005</coordinates></Point></Placemark>
<Placemark><styleUrl>#PinX</styleUrl><name>IDZIK Tomasz Grzegorz BEZP</name><description>Zabierzów SLD Kraków</description><Point><coordinates>19.767466,50.117295</coordinates></Point></Placemark>
<Placemark><styleUrl>#PinX</styleUrl><name>GULIŃSKA Anna Małgorzata BEZP</name><description>Kraków (a) SLD Kraków</description><Point><coordinates>19.992000,50.065005</coordinates></Point></Placemark>
<Placemark><styleUrl>#PinX</styleUrl><name>MODZELEWSKI Bartłomiej Jakub BEZP</name><description>Mst Warszawa (a) SLD Kraków</description><Point><coordinates>21.044537,52.202481</coordinates></Point></Placemark>
<Placemark><styleUrl>#PinX</styleUrl><name>GROBLER Piotr Paweł BEZP</name><description>Kraków (a) SLD Kraków</description><Point><coordinates>19.970147,50.041599</coordinates></Point></Placemark>
<Placemark><styleUrl>#PinX</styleUrl><name>ZIELENIEWSKI Rafał Roman członek partii politycznej: Polska Partia Socjalistyczna</name><description>Mst Warszawa (a) SLD Kraków</description><Point><coordinates>21.059106,52.260642</coordinates></Point></Placemark>
<Placemark><styleUrl>#PinX</styleUrl><name>JAŚKOW Adam Stanisław BEZP</name><description>Kraków (a) SLD Kraków</description><Point><coordinates>20.000591,50.032978</coordinates></Point></Placemark>
<Placemark><styleUrl>#PinX</styleUrl><name>GALENT Marcin LRazem</name><description>Kraków (a) SLD Kraków</description><Point><coordinates>20.018034,50.058670</coordinates></Point></Placemark>
<Placemark><styleUrl>#PinX</styleUrl><name>TEKIEL Paulina Agnieszka BEZP</name><description>Kraków (a) SLD Kraków</description><Point><coordinates>20.008868,50.059952</coordinates></Point></Placemark>
<Placemark><styleUrl>#PinX</styleUrl><name>GAŁKA Kinga BEZP</name><description>Olkusz SLD Kraków</description><Point><coordinates>19.591939,50.265779</coordinates></Point></Placemark>
<Placemark><styleUrl>#PinX</styleUrl><name>LEŚNIAK Tomasz Marek BEZP</name><description>Kraków (a) SLD Kraków</description><Point><coordinates>19.975078,50.067991</coordinates></Point></Placemark>
<Placemark><styleUrl>#PinX</styleUrl><name>BOCHEŃSKI Jakub Józef Wiosna</name><description>Podegrodzie SLD Nowy Sącz</description><Point><coordinates>20.568758,49.595829</coordinates></Point></Placemark>
<Placemark><styleUrl>#PinX</styleUrl><name>ŻYTKOWICZ Barbara Aleksandra BEZP</name><description>Nowy Sącz SLD Nowy Sącz</description><Point><coordinates>20.695271,49.616842</coordinates></Point></Placemark>
<Placemark><styleUrl>#PinX</styleUrl><name>JAKOWICKA Zuzanna Katarzyna LRazem</name><description>Gdańsk (ab) SLD Nowy Sącz</description><Point><coordinates>18.680334,54.370777</coordinates></Point></Placemark>
<Placemark><styleUrl>#PinX</styleUrl><name>PLATO Henryk SLD</name><description>Gorlice SLD Nowy Sącz</description><Point><coordinates>21.168101,49.660722</coordinates></Point></Placemark>
<Placemark><styleUrl>#PinX</styleUrl><name>CZERSKA Beata Katarzyna BEZP</name><description>Zakopane SLD Nowy Sącz</description><Point><coordinates>19.972340,49.268498</coordinates></Point></Placemark>
<Placemark><styleUrl>#PinX</styleUrl><name>DRZEWIŃSKA Marzena Beata BEZP</name><description>Piwniczna-Zdrój SLD Nowy Sącz</description><Point><coordinates>20.739865,49.429517</coordinates></Point></Placemark>
<Placemark><styleUrl>#PinX</styleUrl><name>ORZECHOWSKI Eugeniusz BEZP</name><description>Chełmiec SLD Nowy Sącz</description><Point><coordinates>20.687208,49.648658</coordinates></Point></Placemark>
<Placemark><styleUrl>#PinX</styleUrl><name>CEMPA-PULIT Grażyna BEZP</name><description>Nowy Sącz SLD Nowy Sącz</description><Point><coordinates>20.718292,49.614268</coordinates></Point></Placemark>
<Placemark><styleUrl>#PinX</styleUrl><name>REICHERT Jolanta Maria BEZP</name><description>Nowy Sącz SLD Nowy Sącz</description><Point><coordinates>20.713619,49.612453</coordinates></Point></Placemark>
<Placemark><styleUrl>#PinX</styleUrl><name>GĄSIENICA-DANIEL Stanisław SLD</name><description>Zakopane SLD Nowy Sącz</description><Point><coordinates>19.980636,49.276548</coordinates></Point></Placemark>
<Placemark><styleUrl>#PinX</styleUrl><name>ALCHOWŚKA Maria Jolanta LRazem</name><description>Szaflary SLD Nowy Sącz</description><Point><coordinates>19.992859,49.420421</coordinates></Point></Placemark>
<Placemark><styleUrl>#PinX</styleUrl><name>SMOLEŃ Iwona Anna BEZP</name><description>Chełmiec SLD Nowy Sącz</description><Point><coordinates>20.688874,49.650295</coordinates></Point></Placemark>
<Placemark><styleUrl>#PinX</styleUrl><name>KOŁODZIEJ Łukasz BEZP</name><description>Nowy Sącz SLD Nowy Sącz</description><Point><coordinates>20.699462,49.605472</coordinates></Point></Placemark>
<Placemark><styleUrl>#PinX</styleUrl><name>KĘSKA Bartosz Czesław BEZP</name><description>Zakopane SLD Nowy Sącz</description><Point><coordinates>19.971769,49.281383</coordinates></Point></Placemark>
<Placemark><styleUrl>#PinX</styleUrl><name>ŻYLIŃSKA Jolanta Aleksandra BEZP</name><description>Nowy Sącz SLD Nowy Sącz</description><Point><coordinates>20.709205,49.600818</coordinates></Point></Placemark>
<Placemark><styleUrl>#PinX</styleUrl><name>DŁUGOSZ Krzysztof BEZP</name><description>Nowy Sącz SLD Nowy Sącz</description><Point><coordinates>20.700417,49.620987</coordinates></Point></Placemark>
<Placemark><styleUrl>#PinX</styleUrl><name>PIOTROWSKA Danuta BEZP</name><description>Nowy Sącz SLD Nowy Sącz</description><Point><coordinates>20.696576,49.614831</coordinates></Point></Placemark>
<Placemark><styleUrl>#PinX</styleUrl><name>MAJERCZAK-KIESZKOWSKA Magdalena BEZP</name><description>Szczawnica SLD Nowy Sącz</description><Point><coordinates>20.529937,49.424743</coordinates></Point></Placemark>
<Placemark><styleUrl>#PinX</styleUrl><name>SZLAGOWSKA-BUDACZ Dorota Ewa LRazem</name><description>Mst Warszawa (a) SLD Nowy Sącz</description><Point><coordinates>21.094792,52.255265</coordinates></Point></Placemark>
<Placemark><styleUrl>#PinX</styleUrl><name>JABŁOŃSKI Jacek Andrzej Wiosna</name><description>Tarnów SLD Tarnów</description><Point><coordinates>20.982203,50.034915</coordinates></Point></Placemark>
<Placemark><styleUrl>#PinX</styleUrl><name>WOŹNIAK Jerzy Andrzej SLD</name><description>Zakliczyn SLD Tarnów</description><Point><coordinates>20.789796,49.834909</coordinates></Point></Placemark>
<Placemark><styleUrl>#PinX</styleUrl><name>SKOWROŃSKA Ewa LRazem</name><description>Bochnia SLD Tarnów</description><Point><coordinates>20.422383,49.973446</coordinates></Point></Placemark>
<Placemark><styleUrl>#PinX</styleUrl><name>KOCOŃ Dorota BEZP</name><description>Radłów SLD Tarnów</description><Point><coordinates>20.818207,50.110136</coordinates></Point></Placemark>
<Placemark><styleUrl>#PinX</styleUrl><name>PIWOWARSKI Stanisław Andrzej BEZP</name><description>Tarnów SLD Tarnów</description><Point><coordinates>20.970334,50.030281</coordinates></Point></Placemark>
<Placemark><styleUrl>#PinX</styleUrl><name>SIENICKA Agnieszka Anna BEZP</name><description>Tarnów SLD Tarnów</description><Point><coordinates>21.022851,49.997956</coordinates></Point></Placemark>
<Placemark><styleUrl>#PinX</styleUrl><name>CZAPKIEWICZ Antoni SLD</name><description>Wieliczka SLD Tarnów</description><Point><coordinates>20.055291,49.967007</coordinates></Point></Placemark>
<Placemark><styleUrl>#PinX</styleUrl><name>WILCZYŃSKA Maria Bernadeta BEZP</name><description>Wieliczka SLD Tarnów</description><Point><coordinates>20.063933,49.980832</coordinates></Point></Placemark>
<Placemark><styleUrl>#PinX</styleUrl><name>DAŃDA Przemysław Tomasz LRazem</name><description>Wieliczka SLD Tarnów</description><Point><coordinates>20.053122,49.980975</coordinates></Point></Placemark>
<Placemark><styleUrl>#PinX</styleUrl><name>WĘGRZYN Przemysław BEZP</name><description>Tarnów SLD Tarnów</description><Point><coordinates>20.984202,50.015078</coordinates></Point></Placemark>
<Placemark><styleUrl>#PinX</styleUrl><name>JEWUŁA Romana Anna BEZP</name><description>Tarnów SLD Tarnów</description><Point><coordinates>20.986338,50.034369</coordinates></Point></Placemark>
<Placemark><styleUrl>#PinX</styleUrl><name>NIZIOŁEK Renata Lucyna BEZP</name><description>Wieliczka SLD Tarnów</description><Point><coordinates>20.066436,49.982724</coordinates></Point></Placemark>
<Placemark><styleUrl>#PinX</styleUrl><name>KONOPKA Liliana Karolina SLD</name><description>Wieliczka SLD Tarnów</description><Point><coordinates>20.052531,49.984641</coordinates></Point></Placemark>
<Placemark><styleUrl>#PinX</styleUrl><name>BOROWICZ Artur Łukasz LRazem</name><description>Tarnów SLD Tarnów</description><Point><coordinates>21.025571,49.998128</coordinates></Point></Placemark>
<Placemark><styleUrl>#PinX</styleUrl><name>MAŁEK Justyna Magdalena LRazem</name><description>Borzęcin SLD Tarnów</description><Point><coordinates>20.711905,50.068840</coordinates></Point></Placemark>
<Placemark><styleUrl>#PinX</styleUrl><name>MROZOWSKI Maciej Jan Wiosna</name><description>Bochnia SLD Tarnów</description><Point><coordinates>20.419156,49.994715</coordinates></Point></Placemark>
<Placemark><styleUrl>#PinX</styleUrl><name>SERWIN Alicja Łucja członek partii politycznej: Twój Ruch</name><description>Tarnów SLD Tarnów</description><Point><coordinates>20.987561,50.031635</coordinates></Point></Placemark>
<Placemark><styleUrl>#PinX</styleUrl><name>SZTORC Andrzej Stefan BEZP</name><description>Tarnów SLD Tarnów</description><Point><coordinates>21.019307,49.998819</coordinates></Point></Placemark>
<Placemark><styleUrl>#PinX</styleUrl><name>IWANIAK Arkadiusz SLD</name><description>Płock SLD Płock</description><Point><coordinates>19.716431,52.547952</coordinates></Point></Placemark>
<Placemark><styleUrl>#PinX</styleUrl><name>BRUDNICKI Adrian BEZP</name><description>Płock SLD Płock</description><Point><coordinates>19.713432,52.543292</coordinates></Point></Placemark>
<Placemark><styleUrl>#PinX</styleUrl><name>AUGUSTYŃSKI Zbigniew LRazem</name><description>Płock SLD Płock</description><Point><coordinates>19.720291,52.547995</coordinates></Point></Placemark>
<Placemark><styleUrl>#PinX</styleUrl><name>LINOWSKA Małgorzata SLD</name><description>Żyrardów SLD Płock</description><Point><coordinates>20.442057,52.056430</coordinates></Point></Placemark>
<Placemark><styleUrl>#PinX</styleUrl><name>KWASIBORSKI Krzysztof BEZP</name><description>Bielsk SLD Płock</description><Point><coordinates>19.813129,52.662664</coordinates></Point></Placemark>
<Placemark><styleUrl>#PinX</styleUrl><name>ANTOSZKIEWICZ Janina Franciszka SLD</name><description>Stara Biała SLD Płock</description><Point><coordinates>19.653279,52.618825</coordinates></Point></Placemark>
<Placemark><styleUrl>#PinX</styleUrl><name>KANIEWSKI Piotr Julian BEZP</name><description>Płońsk SLD Płock</description><Point><coordinates>20.366712,52.629956</coordinates></Point></Placemark>
<Placemark><styleUrl>#PinX</styleUrl><name>ŁUCZAK Dariusz LRazem</name><description>Żyrardów SLD Płock</description><Point><coordinates>20.441017,52.048851</coordinates></Point></Placemark>
<Placemark><styleUrl>#PinX</styleUrl><name>JASIŃSKA Renata LRazem</name><description>Stara Biała SLD Płock</description><Point><coordinates>19.653740,52.619214</coordinates></Point></Placemark>
<Placemark><styleUrl>#PinX</styleUrl><name>NOWAK Eugeniusz Jan SLD</name><description>Ciechanów SLD Płock</description><Point><coordinates>20.610499,52.875491</coordinates></Point></Placemark>
<Placemark><styleUrl>#PinX</styleUrl><name>GŁUSKOWSKA Renata Małgorzata SLD</name><description>Rościszewo SLD Płock</description><Point><coordinates>19.768001,52.908469</coordinates></Point></Placemark>
<Placemark><styleUrl>#PinX</styleUrl><name>WELENC Anna BEZP</name><description>Płock SLD Płock</description><Point><coordinates>19.707021,52.539031</coordinates></Point></Placemark>
<Placemark><styleUrl>#PinX</styleUrl><name>GÓRECKA Olga BEZP</name><description>Łąck SLD Płock</description><Point><coordinates>19.627288,52.453933</coordinates></Point></Placemark>
<Placemark><styleUrl>#PinX</styleUrl><name>ANDRZEJCZAK Sebastian SLD</name><description>Regimin SLD Płock</description><Point><coordinates>20.584898,52.950916</coordinates></Point></Placemark>
<Placemark><styleUrl>#PinX</styleUrl><name>DOBROWOLSKI Mateusz LRazem</name><description>Mst Warszawa (a) SLD Płock</description><Point><coordinates>21.043104,52.221259</coordinates></Point></Placemark>
<Placemark><styleUrl>#PinX</styleUrl><name>KUJAWA Wioletta BEZP</name><description>Szydłowo SLD Płock</description><Point><coordinates>20.491559,53.079981</coordinates></Point></Placemark>
<Placemark><styleUrl>#PinX</styleUrl><name>KRÓLIKOWSKI Zbigniew SLD</name><description>Gostynin SLD Płock</description><Point><coordinates>19.459493,52.423430</coordinates></Point></Placemark>
<Placemark><styleUrl>#PinX</styleUrl><name>PIÓROWICZ Jerzy Wojciech LRazem</name><description>Radzanowo SLD Płock</description><Point><coordinates>19.852260,52.587825</coordinates></Point></Placemark>
<Placemark><styleUrl>#PinX</styleUrl><name>STANISZEWSKI Jan BEZP</name><description>Bulkowo SLD Płock</description><Point><coordinates>20.077292,52.559428</coordinates></Point></Placemark>
<Placemark><styleUrl>#PinX</styleUrl><name>KIWIT Marek SLD</name><description>Ciechanów SLD Płock</description><Point><coordinates>20.611998,52.872810</coordinates></Point></Placemark>
<Placemark><styleUrl>#PinX</styleUrl><name>FAJDEK Patryk Wiosna</name><description>Radom (a) SLD Radom</description><Point><coordinates>21.155003,51.419332</coordinates></Point></Placemark>
<Placemark><styleUrl>#PinX</styleUrl><name>SITARSKI Ireneusz Robert BEZP</name><description>Mst Warszawa (a) SLD Radom</description><Point><coordinates>21.090147,52.253990</coordinates></Point></Placemark>
<Placemark><styleUrl>#PinX</styleUrl><name>ŻYTKOWSKA-PRUS Anna Izabela LRazem</name><description>Kowala SLD Radom</description><Point><coordinates>21.097164,51.326746</coordinates></Point></Placemark>
<Placemark><styleUrl>#PinX</styleUrl><name>OLISZEWSKI Daniel SLD</name><description>Jasieniec SLD Radom</description><Point><coordinates>20.991611,51.794156</coordinates></Point></Placemark>
<Placemark><styleUrl>#PinX</styleUrl><name>ZIEMNICKA Małgorzata Maria BEZP</name><description>Radom (a) SLD Radom</description><Point><coordinates>21.155700,51.419345</coordinates></Point></Placemark>
<Placemark><styleUrl>#PinX</styleUrl><name>FIGURSKA Ewa Anna SLD</name><description>Pionki SLD Radom</description><Point><coordinates>21.443821,51.469271</coordinates></Point></Placemark>
<Placemark><styleUrl>#PinX</styleUrl><name>PERCZAK Judyta Ewa BEZP</name><description>Rzeczniów SLD Radom</description><Point><coordinates>21.394089,51.124388</coordinates></Point></Placemark>
<Placemark><styleUrl>#PinX</styleUrl><name>SZEWCZYK Kalina Olga LRazem</name><description>Pionki SLD Radom</description><Point><coordinates>21.449163,51.472965</coordinates></Point></Placemark>
<Placemark><styleUrl>#PinX</styleUrl><name>JAGIEŁŁO Iwona Agnieszka SLD</name><description>Radom (a) SLD Radom</description><Point><coordinates>21.149096,51.407847</coordinates></Point></Placemark>
<Placemark><styleUrl>#PinX</styleUrl><name>SZMIGIEL Piotr Adam Wiosna</name><description>Radom (a) SLD Radom</description><Point><coordinates>21.173951,51.418730</coordinates></Point></Placemark>
<Placemark><styleUrl>#PinX</styleUrl><name>DRELA Beata Agnieszka BEZP</name><description>Chlewiska SLD Radom</description><Point><coordinates>20.726454,51.232642</coordinates></Point></Placemark>
<Placemark><styleUrl>#PinX</styleUrl><name>WICIK Karol Mariusz BEZP</name><description>Radom (a) SLD Radom</description><Point><coordinates>21.143232,51.424521</coordinates></Point></Placemark>
<Placemark><styleUrl>#PinX</styleUrl><name>GIZIŃSKI Bartosz Jakub SLD</name><description>Radom (a) SLD Radom</description><Point><coordinates>21.145523,51.428573</coordinates></Point></Placemark>
<Placemark><styleUrl>#PinX</styleUrl><name>MALEC-ĆWIEK Edyta Jadwiga BEZP</name><description>Radom (a) SLD Radom</description><Point><coordinates>21.158997,51.412578</coordinates></Point></Placemark>
<Placemark><styleUrl>#PinX</styleUrl><name>GORYCKI Zygmunt SLD</name><description>Przysucha SLD Radom</description><Point><coordinates>20.632477,51.336290</coordinates></Point></Placemark>
<Placemark><styleUrl>#PinX</styleUrl><name>GRYCHTAL Sławomir Włodzimierz BEZP</name><description>Radom (a) SLD Radom</description><Point><coordinates>21.153045,51.416316</coordinates></Point></Placemark>
<Placemark><styleUrl>#PinX</styleUrl><name>KOSIEC Justyna Agnieszka LRazem</name><description>Radom (a) SLD Radom</description><Point><coordinates>21.166566,51.409930</coordinates></Point></Placemark>
<Placemark><styleUrl>#PinX</styleUrl><name>SOKOŁOWSKA Jolanta Monika SLD</name><description>Radom (a) SLD Radom</description><Point><coordinates>21.148128,51.431088</coordinates></Point></Placemark>
<Placemark><styleUrl>#PinX</styleUrl><name>OLKO Dorota Zofia LRazem</name><description>Siedlce SLD Siedlce</description><Point><coordinates>22.271411,52.152822</coordinates></Point></Placemark>
<Placemark><styleUrl>#PinX</styleUrl><name>PIASECKA Anna BEZP</name><description>Siedlce SLD Siedlce</description><Point><coordinates>22.270976,52.163908</coordinates></Point></Placemark>
<Placemark><styleUrl>#PinX</styleUrl><name>PARZYCHOWSKA-KURPIEWSKA Maria Magdalena BEZP</name><description>Ostrołęka SLD Siedlce</description><Point><coordinates>21.582491,53.076526</coordinates></Point></Placemark>
<Placemark><styleUrl>#PinX</styleUrl><name>SKRZYNIARZ Michał Aleksander LRazem</name><description>Sulejówek SLD Siedlce</description><Point><coordinates>21.283453,52.242362</coordinates></Point></Placemark>
<Placemark><styleUrl>#PinX</styleUrl><name>KARDACZ Tomasz Robert BEZP</name><description>Łosice SLD Siedlce</description><Point><coordinates>22.739413,52.221292</coordinates></Point></Placemark>
<Placemark><styleUrl>#PinX</styleUrl><name>KUŹNIARSKI Jacek Piotr SLD</name><description>Siedlce SLD Siedlce</description><Point><coordinates>22.286353,52.169868</coordinates></Point></Placemark>
<Placemark><styleUrl>#PinX</styleUrl><name>TRZPIL Izabela Aldona BEZP</name><description>Sokołów Podlaski SLD Siedlce</description><Point><coordinates>22.230640,52.412135</coordinates></Point></Placemark>
<Placemark><styleUrl>#PinX</styleUrl><name>ZYGMUNT Beata BEZP</name><description>Różan SLD Siedlce</description><Point><coordinates>21.380457,52.887642</coordinates></Point></Placemark>
<Placemark><styleUrl>#PinX</styleUrl><name>KOMOR Radosław SLD</name><description>Brańszczyk SLD Siedlce</description><Point><coordinates>21.629932,52.665640</coordinates></Point></Placemark>
<Placemark><styleUrl>#PinX</styleUrl><name>KARWOWSKI Maciej Wiosna</name><description>Zbuczyn SLD Siedlce</description><Point><coordinates>22.500165,52.093530</coordinates></Point></Placemark>
<Placemark><styleUrl>#PinX</styleUrl><name>PAWLAK Maria Aleksandra BEZP</name><description>Mst Warszawa (a) SLD Siedlce</description><Point><coordinates>21.097043,52.200030</coordinates></Point></Placemark>
<Placemark><styleUrl>#PinX</styleUrl><name>PRANDOTA Maciej Tadeusz SLD</name><description>Mst Warszawa (a) SLD Siedlce</description><Point><coordinates>21.076109,52.206986</coordinates></Point></Placemark>
<Placemark><styleUrl>#PinX</styleUrl><name>GROCHOWSKI Krzysztof LRazem</name><description>Mst Warszawa (a) SLD Siedlce</description><Point><coordinates>21.060449,52.208040</coordinates></Point></Placemark>
<Placemark><styleUrl>#PinX</styleUrl><name>OLEKSY Tomasz Sebastian LRazem</name><description>Kraków (a) SLD Siedlce</description><Point><coordinates>20.007674,50.020170</coordinates></Point></Placemark>
<Placemark><styleUrl>#PinX</styleUrl><name>LIS Grzegorz BEZP</name><description>Myszyniec SLD Siedlce</description><Point><coordinates>21.349182,53.360120</coordinates></Point></Placemark>
<Placemark><styleUrl>#PinX</styleUrl><name>KASPAREK Justyna Helena LRazem</name><description>Mst Warszawa (a) SLD Siedlce</description><Point><coordinates>21.024754,52.205471</coordinates></Point></Placemark>
<Placemark><styleUrl>#PinX</styleUrl><name>ADAMCZYK Małgorzata Joanna LRazem</name><description>Mst Warszawa (a) SLD Siedlce</description><Point><coordinates>21.013537,52.232650</coordinates></Point></Placemark>
<Placemark><styleUrl>#PinX</styleUrl><name>CHOJECKI Rafał członek partii politycznej: Twój Ruch</name><description>Siedlce SLD Siedlce</description><Point><coordinates>22.269315,52.163982</coordinates></Point></Placemark>
<Placemark><styleUrl>#PinX</styleUrl><name>WOJTOWICZ Małgorzata Olga LRazem</name><description>Mst Warszawa (a) SLD Siedlce</description><Point><coordinates>21.051572,52.220510</coordinates></Point></Placemark>
<Placemark><styleUrl>#PinX</styleUrl><name>GASTOŁ Marta LRazem</name><description>Klembów SLD Siedlce</description><Point><coordinates>21.326365,52.412273</coordinates></Point></Placemark>
<Placemark><styleUrl>#PinX</styleUrl><name>PNIEWSKI Tomasz Andrzej LRazem</name><description>Mst Warszawa (a) SLD Siedlce</description><Point><coordinates>21.088496,52.247067</coordinates></Point></Placemark>
<Placemark><styleUrl>#PinX</styleUrl><name>HASZCZYŃSKA Delfina Maria LRazem</name><description>Mst Warszawa (a) SLD Siedlce</description><Point><coordinates>21.086536,52.196304</coordinates></Point></Placemark>
<Placemark><styleUrl>#PinX</styleUrl><name>GUZ Grzegorz LRazem</name><description>Siedlce SLD Siedlce</description><Point><coordinates>22.279883,52.166644</coordinates></Point></Placemark>
<Placemark><styleUrl>#PinX</styleUrl><name>KRASUCKI Henryk Krzysztof BEZP</name><description>Pułtusk SLD Siedlce</description><Point><coordinates>21.081410,52.730776</coordinates></Point></Placemark>
<Placemark><styleUrl>#PinX</styleUrl><name>ZANDBERG Adrian Tadeusz członek partii politycznej: Razem</name><description>Mst Warszawa (a) SLD Warszawa</description><Point><coordinates>21.038443,52.235585</coordinates></Point></Placemark>
<Placemark><styleUrl>#PinX</styleUrl><name>ŻUKOWSKA Anna Maria SLD</name><description>Mst Warszawa (a) SLD Warszawa</description><Point><coordinates>21.026797,52.246127</coordinates></Point></Placemark>
<Placemark><styleUrl>#PinX</styleUrl><name>TARCZYŃSKA Anna Małgorzata Wiosna</name><description>Łomianki SLD Warszawa</description><Point><coordinates>20.869571,52.341296</coordinates></Point></Placemark>
<Placemark><styleUrl>#PinX</styleUrl><name>BIEJAT Magdalena Agnieszka LRazem</name><description>Mst Warszawa (a) SLD Warszawa</description><Point><coordinates>21.025703,52.216283</coordinates></Point></Placemark>
<Placemark><styleUrl>#PinX</styleUrl><name>LIEDEL Krzysztof BEZP</name><description>Mst Warszawa (a) SLD Warszawa</description><Point><coordinates>21.041944,52.276050</coordinates></Point></Placemark>
<Placemark><styleUrl>#PinX</styleUrl><name>PELC Filip Tadeusz Wiosna</name><description>Mst Warszawa (a) SLD Warszawa</description><Point><coordinates>21.042359,52.249934</coordinates></Point></Placemark>
<Placemark><styleUrl>#PinX</styleUrl><name>PRZYŁUSKA Bożena Marta BEZP</name><description>Mst Warszawa (a) SLD Warszawa</description><Point><coordinates>21.043014,52.194138</coordinates></Point></Placemark>
<Placemark><styleUrl>#PinX</styleUrl><name>BRÓZDA Hanna Janina SLD</name><description>Mst Warszawa (a) SLD Warszawa</description><Point><coordinates>21.082309,52.218289</coordinates></Point></Placemark>
<Placemark><styleUrl>#PinX</styleUrl><name>DUDA Katarzyna Beata BEZP</name><description>Kietrz SLD Warszawa</description><Point><coordinates>17.944333,50.056637</coordinates></Point></Placemark>
<Placemark><styleUrl>#PinX</styleUrl><name>STĘPIEŃ Mateusz Zbigniew Wiosna</name><description>Mst Warszawa (a) SLD Warszawa</description><Point><coordinates>21.022415,52.233948</coordinates></Point></Placemark>
<Placemark><styleUrl>#PinX</styleUrl><name>LISZKA Sebastian Roman Wiosna</name><description>Mst Warszawa (a) SLD Warszawa</description><Point><coordinates>21.075663,52.230954</coordinates></Point></Placemark>
<Placemark><styleUrl>#PinX</styleUrl><name>POSTNIKOFF Danuta Beata SLD</name><description>Mst Warszawa (a) SLD Warszawa</description><Point><coordinates>21.029211,52.239120</coordinates></Point></Placemark>
<Placemark><styleUrl>#PinX</styleUrl><name>WICHA Joanna Beata LRazem</name><description>Mst Warszawa (a) SLD Warszawa</description><Point><coordinates>21.044517,52.220219</coordinates></Point></Placemark>
<Placemark><styleUrl>#PinX</styleUrl><name>KUBIAK Jacek Zbigniew BEZP</name><description>Pruszków SLD Warszawa</description><Point><coordinates>20.796985,52.171468</coordinates></Point></Placemark>
<Placemark><styleUrl>#PinX</styleUrl><name>GOŹDZIKOWSKI Mateusz Wojciech BEZP</name><description>Mst Warszawa (a) SLD Warszawa</description><Point><coordinates>21.040333,52.206192</coordinates></Point></Placemark>
<Placemark><styleUrl>#PinX</styleUrl><name>KUCZYŃSKA Urszula Teresa LRazem</name><description>Mst Warszawa (a) SLD Warszawa</description><Point><coordinates>21.066748,52.203646</coordinates></Point></Placemark>
<Placemark><styleUrl>#PinX</styleUrl><name>MYCKA Łukasz Kamil SLD</name><description>Mst Warszawa (a) SLD Warszawa</description><Point><coordinates>21.083959,52.237525</coordinates></Point></Placemark>
<Placemark><styleUrl>#PinX</styleUrl><name>KELLES-KRAUZ Joanna Maria BEZP</name><description>Mst Warszawa (a) SLD Warszawa</description><Point><coordinates>21.048015,52.184397</coordinates></Point></Placemark>
<Placemark><styleUrl>#PinX</styleUrl><name>OŻDŻEŃSKI Wojciech członek partii politycznej: Twój Ruch</name><description>Mst Warszawa (a) SLD Warszawa</description><Point><coordinates>21.035868,52.274627</coordinates></Point></Placemark>
<Placemark><styleUrl>#PinX</styleUrl><name>ROZENEK Dariusz Krzysztof BEZP</name><description>Mst Warszawa (a) SLD Warszawa</description><Point><coordinates>21.062983,52.185458</coordinates></Point></Placemark>
<Placemark><styleUrl>#PinX</styleUrl><name>BRONOWICKA Joanna Wanda LRazem</name><description>Opole SLD Warszawa</description><Point><coordinates>17.908355,50.685752</coordinates></Point></Placemark>
<Placemark><styleUrl>#PinX</styleUrl><name>DUNIN-BORKOWSKI Maciej Włodzimierz BEZP</name><description>Mst Warszawa (a) SLD Warszawa</description><Point><coordinates>21.100990,52.238651</coordinates></Point></Placemark>
<Placemark><styleUrl>#PinX</styleUrl><name>DOMAŃSKA Inga Maria LRazem</name><description>Mst Warszawa (a) SLD Warszawa</description><Point><coordinates>21.079830,52.271644</coordinates></Point></Placemark>
<Placemark><styleUrl>#PinX</styleUrl><name>RYTEL Jerzy Marian SLD</name><description>Mst Warszawa (a) SLD Warszawa</description><Point><coordinates>21.097865,52.226639</coordinates></Point></Placemark>
<Placemark><styleUrl>#PinX</styleUrl><name>WRÓBLEWSKI Andrzej Wiktor SLD</name><description>Mst Warszawa (a) SLD Warszawa</description><Point><coordinates>21.101040,52.261005</coordinates></Point></Placemark>
<Placemark><styleUrl>#PinX</styleUrl><name>PAJĘCKA Anna Paulina LRazem</name><description>Mst Warszawa (a) SLD Warszawa</description><Point><coordinates>21.038555,52.278374</coordinates></Point></Placemark>
<Placemark><styleUrl>#PinX</styleUrl><name>JAGODZIŃSKA Anna Klara LRazem</name><description>Mst Warszawa (a) SLD Warszawa</description><Point><coordinates>21.059561,52.245821</coordinates></Point></Placemark>
<Placemark><styleUrl>#PinX</styleUrl><name>MIENIEWSKI Daniel SLD</name><description>Mst Warszawa (a) SLD Warszawa</description><Point><coordinates>21.046794,52.285663</coordinates></Point></Placemark>
<Placemark><styleUrl>#PinX</styleUrl><name>LUTOSTAŃSKA Agnieszka BEZP</name><description>Mst Warszawa (a) SLD Warszawa</description><Point><coordinates>21.095883,52.231259</coordinates></Point></Placemark>
<Placemark><styleUrl>#PinX</styleUrl><name>GĄSIOROWSKA Małgorzata Anna LRazem</name><description>Mst Warszawa (a) SLD Warszawa</description><Point><coordinates>21.070822,52.228218</coordinates></Point></Placemark>
<Placemark><styleUrl>#PinX</styleUrl><name>ŻURAWSKI Cezary członek partii politycznej: Polska Partia Socjalistyczna</name><description>Mst Warszawa (a) SLD Warszawa</description><Point><coordinates>21.073983,52.183055</coordinates></Point></Placemark>
<Placemark><styleUrl>#PinX</styleUrl><name>SADOWSKA Anna Paulina BEZP</name><description>Mst Warszawa (a) SLD Warszawa</description><Point><coordinates>21.024835,52.256437</coordinates></Point></Placemark>
<Placemark><styleUrl>#PinX</styleUrl><name>MIERZWIŃSKI Krzysztof Stanisław SLD</name><description>Mst Warszawa (a) SLD Warszawa</description><Point><coordinates>21.039238,52.244412</coordinates></Point></Placemark>
<Placemark><styleUrl>#PinX</styleUrl><name>KOWALSKA-ZIĘTARA Katarzyna Anna LRazem</name><description>Mst Warszawa (a) SLD Warszawa</description><Point><coordinates>21.045196,52.188372</coordinates></Point></Placemark>
<Placemark><styleUrl>#PinX</styleUrl><name>GODLEWSKA Joanna Maria LRazem</name><description>Mst Warszawa (a) SLD Warszawa</description><Point><coordinates>21.020903,52.232421</coordinates></Point></Placemark>
<Placemark><styleUrl>#PinX</styleUrl><name>SZUSTAKIEWICZ Karol Andrzej SLD</name><description>Mst Warszawa (a) SLD Warszawa</description><Point><coordinates>21.082813,52.234488</coordinates></Point></Placemark>
<Placemark><styleUrl>#PinX</styleUrl><name>JANICZAK Grzegorz Jan BEZP</name><description>Mst Warszawa (a) SLD Warszawa</description><Point><coordinates>21.085566,52.210764</coordinates></Point></Placemark>
<Placemark><styleUrl>#PinX</styleUrl><name>UTOWKA Patryk Piotr Wiosna</name><description>Mst Warszawa (a) SLD Warszawa</description><Point><coordinates>21.102271,52.232786</coordinates></Point></Placemark>
<Placemark><styleUrl>#PinX</styleUrl><name>SAYED Marta Zofia Wiosna</name><description>Mst Warszawa (a) SLD Warszawa</description><Point><coordinates>21.081229,52.190404</coordinates></Point></Placemark>
<Placemark><styleUrl>#PinX</styleUrl><name>GADZINOWSKI Piotr SLD</name><description>Mst Warszawa (a) SLD Warszawa</description><Point><coordinates>21.043690,52.285093</coordinates></Point></Placemark>
<Placemark><styleUrl>#PinX</styleUrl><name>ROZENEK Andrzej Tadeusz SLD</name><description>Ząbki SLD Warszawa</description><Point><coordinates>21.108551,52.288658</coordinates></Point></Placemark>
<Placemark><styleUrl>#PinX</styleUrl><name>ZIMMERMANN Julia Eliza LRazem</name><description>Mst Warszawa (a) SLD Warszawa</description><Point><coordinates>21.025152,52.232091</coordinates></Point></Placemark>
<Placemark><styleUrl>#PinX</styleUrl><name>BUŹNIAK Sylwia Lidia Wiosna</name><description>Kobyłka SLD Warszawa</description><Point><coordinates>21.196603,52.346297</coordinates></Point></Placemark>
<Placemark><styleUrl>#PinX</styleUrl><name>PONIEWIERKA Leszek Wiosna</name><description>Wieliszew SLD Warszawa</description><Point><coordinates>20.879819,52.448543</coordinates></Point></Placemark>
<Placemark><styleUrl>#PinX</styleUrl><name>GÓRSKI Marcin LRazem</name><description>Piastów SLD Warszawa</description><Point><coordinates>20.845821,52.190261</coordinates></Point></Placemark>
<Placemark><styleUrl>#PinX</styleUrl><name>RADZIKOWSKI Andrzej Marek BEZP</name><description>Czosnów SLD Warszawa</description><Point><coordinates>20.708679,52.370097</coordinates></Point></Placemark>
<Placemark><styleUrl>#PinX</styleUrl><name>GOŁOTA Konrad Krzyszof SLD</name><description>Radzymin SLD Warszawa</description><Point><coordinates>21.176463,52.438827</coordinates></Point></Placemark>
<Placemark><styleUrl>#PinX</styleUrl><name>SKÓRSKA Ewa Katarzyna BEZP</name><description>Leszno SLD Warszawa</description><Point><coordinates>20.606404,52.282451</coordinates></Point></Placemark>
<Placemark><styleUrl>#PinX</styleUrl><name>BRAITER Katarzyna Anna BEZP</name><description>Raszyn SLD Warszawa</description><Point><coordinates>20.917369,52.125904</coordinates></Point></Placemark>
<Placemark><styleUrl>#PinX</styleUrl><name>GAWKOWSKI Bartosz Konrad Wiosna</name><description>Radzymin SLD Warszawa</description><Point><coordinates>21.178944,52.440553</coordinates></Point></Placemark>
<Placemark><styleUrl>#PinX</styleUrl><name>CIEPLIŃSKA-KOWALSKA Joanna Dagmara LRazem</name><description>Wiązowna SLD Warszawa</description><Point><coordinates>21.361719,52.169051</coordinates></Point></Placemark>
<Placemark><styleUrl>#PinX</styleUrl><name>STARZYŃSKA Małgorzata Henryka BEZP</name><description>Pomiechówek SLD Warszawa</description><Point><coordinates>20.764151,52.495729</coordinates></Point></Placemark>
<Placemark><styleUrl>#PinX</styleUrl><name>KOWALSKA Katarzyna BEZP</name><description>Kołbiel SLD Warszawa</description><Point><coordinates>21.490670,52.060546</coordinates></Point></Placemark>
<Placemark><styleUrl>#PinX</styleUrl><name>MAZUR Remigiusz Radosław LRazem</name><description>Milanówek SLD Warszawa</description><Point><coordinates>20.672961,52.129368</coordinates></Point></Placemark>
<Placemark><styleUrl>#PinX</styleUrl><name>KOZIELSKA Liliana Wiosna</name><description>Lesznowola SLD Warszawa</description><Point><coordinates>20.925645,52.071974</coordinates></Point></Placemark>
<Placemark><styleUrl>#PinX</styleUrl><name>WOJCIESKI Andrzej Wiosna</name><description>Otwock SLD Warszawa</description><Point><coordinates>21.287249,52.117473</coordinates></Point></Placemark>
<Placemark><styleUrl>#PinX</styleUrl><name>URBANEK Robert LRazem</name><description>Pruszków SLD Warszawa</description><Point><coordinates>20.806227,52.172860</coordinates></Point></Placemark>
<Placemark><styleUrl>#PinX</styleUrl><name>BŁASZCZAK Monika BEZP</name><description>Wołomin SLD Warszawa</description><Point><coordinates>21.268686,52.356669</coordinates></Point></Placemark>
<Placemark><styleUrl>#PinX</styleUrl><name>MIŁOW Sławomir Borys BEZP</name><description>Lesznowola SLD Warszawa</description><Point><coordinates>20.927822,52.068635</coordinates></Point></Placemark>
<Placemark><styleUrl>#PinX</styleUrl><name>SZYMAŃSKI Mateusz LRazem</name><description>Pomiechówek SLD Warszawa</description><Point><coordinates>20.760304,52.490106</coordinates></Point></Placemark>
<Placemark><styleUrl>#PinX</styleUrl><name>WRÓBLEWSKA Ewa Magdalena Wiosna</name><description>Radzymin SLD Warszawa</description><Point><coordinates>21.183710,52.434531</coordinates></Point></Placemark>
<Placemark><styleUrl>#PinX</styleUrl><name>TOMASZEWSKI Wiesław BEZP</name><description>Nowy Dwór Mazowiecki (a) SLD Warszawa</description><Point><coordinates>20.689135,52.438159</coordinates></Point></Placemark>
<Placemark><styleUrl>#PinX</styleUrl><name>STEFANKOWSKI Mateusz Kamil LRazem</name><description>Radzymin SLD Warszawa</description><Point><coordinates>21.183741,52.435972</coordinates></Point></Placemark>
<Placemark><styleUrl>#PinX</styleUrl><name>PAPUGA Marek Zdzisław SLD</name><description>Nowy Dwór Mazowiecki (a) SLD Warszawa</description><Point><coordinates>20.688861,52.431973</coordinates></Point></Placemark>
<Placemark><styleUrl>#PinX</styleUrl><name>ZAWISZA Marcelina Monika LRazem</name><description>Mst Warszawa (a) SLD Opole</description><Point><coordinates>21.035268,52.236625</coordinates></Point></Placemark>
<Placemark><styleUrl>#PinX</styleUrl><name>WOŹNIAK Piotr Jan SLD</name><description>Otmuchów SLD Opole</description><Point><coordinates>17.171090,50.441712</coordinates></Point></Placemark>
<Placemark><styleUrl>#PinX</styleUrl><name>PILC Jarosław Stanisław Wiosna</name><description>Opole SLD Opole</description><Point><coordinates>17.902428,50.672239</coordinates></Point></Placemark>
<Placemark><styleUrl>#PinX</styleUrl><name>JURCZYK-MIŻEJEWSKA Anna Maria LRazem</name><description>Byczyna SLD Opole</description><Point><coordinates>18.211076,51.108573</coordinates></Point></Placemark>
<Placemark><styleUrl>#PinX</styleUrl><name>OLIŃSKA-BIEG Małgorzata Jolanta BEZP</name><description>Izbicko SLD Opole</description><Point><coordinates>18.156656,50.569945</coordinates></Point></Placemark>
<Placemark><styleUrl>#PinX</styleUrl><name>KACZOR Maciej BEZP</name><description>Kluczbork SLD Opole</description><Point><coordinates>18.215868,50.980802</coordinates></Point></Placemark>
<Placemark><styleUrl>#PinX</styleUrl><name>DROST Andrzej Oswald LRazem</name><description>Prudnik SLD Opole</description><Point><coordinates>17.528953,50.349048</coordinates></Point></Placemark>
<Placemark><styleUrl>#PinX</styleUrl><name>JUSZCZYK Grażyna LRazem</name><description>Krapkowice SLD Opole</description><Point><coordinates>17.954965,50.459487</coordinates></Point></Placemark>
<Placemark><styleUrl>#PinX</styleUrl><name>NOWAK Stanisław SLD</name><description>Walce SLD Opole</description><Point><coordinates>17.997218,50.387990</coordinates></Point></Placemark>
<Placemark><styleUrl>#PinX</styleUrl><name>BARYŁOWICZ Anna Danuta LRazem</name><description>Opole SLD Opole</description><Point><coordinates>17.896286,50.688312</coordinates></Point></Placemark>
<Placemark><styleUrl>#PinX</styleUrl><name>ŚWITLIK Adam Lesław BEZP</name><description>Namysłów SLD Opole</description><Point><coordinates>17.702020,51.083583</coordinates></Point></Placemark>
<Placemark><styleUrl>#PinX</styleUrl><name>GAŁĄZKA Iwona LRazem</name><description>Opole SLD Opole</description><Point><coordinates>17.896930,50.676313</coordinates></Point></Placemark>
<Placemark><styleUrl>#PinX</styleUrl><name>MUCHA Paweł Józef LRazem</name><description>Kędzierzyn-Koźle SLD Opole</description><Point><coordinates>18.244356,50.341632</coordinates></Point></Placemark>
<Placemark><styleUrl>#PinX</styleUrl><name>GĄSOWSKA-KRAMARZ Agata BEZP</name><description>Opole SLD Opole</description><Point><coordinates>17.906810,50.660683</coordinates></Point></Placemark>
<Placemark><styleUrl>#PinX</styleUrl><name>ZĘBALA Andrzej Marian SLD</name><description>Kędzierzyn-Koźle SLD Opole</description><Point><coordinates>18.249822,50.343723</coordinates></Point></Placemark>
<Placemark><styleUrl>#PinX</styleUrl><name>PAPROTA Katarzyna Ewa LRazem</name><description>Mst Warszawa (a) SLD Opole</description><Point><coordinates>21.108696,52.256292</coordinates></Point></Placemark>
<Placemark><styleUrl>#PinX</styleUrl><name>BEDNAREK Grzegorz Paweł BEZP</name><description>Dobrodzień SLD Opole</description><Point><coordinates>18.449989,50.711896</coordinates></Point></Placemark>
<Placemark><styleUrl>#PinX</styleUrl><name>KYCIA Anna Magdalena LRazem</name><description>Opole SLD Opole</description><Point><coordinates>17.896939,50.663175</coordinates></Point></Placemark>
<Placemark><styleUrl>#PinX</styleUrl><name>SORGOWICKI Michał Karol LRazem</name><description>Opole SLD Opole</description><Point><coordinates>17.898082,50.670859</coordinates></Point></Placemark>
<Placemark><styleUrl>#PinX</styleUrl><name>MIENTUS Alina Małgorzata BEZP</name><description>Branice SLD Opole</description><Point><coordinates>17.813282,50.056886</coordinates></Point></Placemark>
<Placemark><styleUrl>#PinX</styleUrl><name>OSIADŁY Piotr Wojciech LRazem</name><description>Nysa SLD Opole</description><Point><coordinates>17.354421,50.456048</coordinates></Point></Placemark>
<Placemark><styleUrl>#PinX</styleUrl><name>PODMOSTKA Natalia Maria BEZP</name><description>Opole SLD Opole</description><Point><coordinates>17.913216,50.687728</coordinates></Point></Placemark>
<Placemark><styleUrl>#PinX</styleUrl><name>PRZYSTAJKO Jerzy LRazem</name><description>Opole SLD Opole</description><Point><coordinates>17.911299,50.665171</coordinates></Point></Placemark>
<Placemark><styleUrl>#PinX</styleUrl><name>RYDZIK Łukasz Michał Wiosna</name><description>Oleszyce SLD Krosno</description><Point><coordinates>22.970255,50.144024</coordinates></Point></Placemark>
<Placemark><styleUrl>#PinX</styleUrl><name>ZAJDEL Gabriel Jerzy SLD</name><description>Krosno SLD Krosno</description><Point><coordinates>21.760844,49.685886</coordinates></Point></Placemark>
<Placemark><styleUrl>#PinX</styleUrl><name>MACKIEWICZ-ROSSMANITH Kamila LRazem</name><description>Sanok SLD Krosno</description><Point><coordinates>22.211857,49.563796</coordinates></Point></Placemark>
<Placemark><styleUrl>#PinX</styleUrl><name>JAGUSTYN Janusz Andrzej SLD</name><description>Przemyśl (c) SLD Krosno</description><Point><coordinates>22.795882,49.783004</coordinates></Point></Placemark>
<Placemark><styleUrl>#PinX</styleUrl><name>PIOTROWSKA Kamila Helena SLD</name><description>Brzozów SLD Krosno</description><Point><coordinates>22.026904,49.687077</coordinates></Point></Placemark>
<Placemark><styleUrl>#PinX</styleUrl><name>FIC Patryk Beniamin BEZP</name><description>Jedlicze SLD Krosno</description><Point><coordinates>21.641796,49.719937</coordinates></Point></Placemark>
<Placemark><styleUrl>#PinX</styleUrl><name>CIWONIUK Marzena Mieczysława LRazem</name><description>Ustrzyki Dolne SLD Krosno</description><Point><coordinates>22.570149,49.500836</coordinates></Point></Placemark>
<Placemark><styleUrl>#PinX</styleUrl><name>RYCZAN Dominik Łukasz BEZP</name><description>Żurawica SLD Krosno</description><Point><coordinates>22.754468,49.848667</coordinates></Point></Placemark>
<Placemark><styleUrl>#PinX</styleUrl><name>GORCZYCA Iwona BEZP</name><description>Jasło SLD Krosno</description><Point><coordinates>21.502112,49.736918</coordinates></Point></Placemark>
<Placemark><styleUrl>#PinX</styleUrl><name>BOGUSZ Adam SLD</name><description>Dydnia SLD Krosno</description><Point><coordinates>22.202578,49.680286</coordinates></Point></Placemark>